[
 {
  "name": "Carbonear",
  "prov": "NL",
  "code": "1001370",
  "csd": "Carbonear, Town (T)",
  "pop": 4696.0,
  "density": 377.4,
  "land_km2": 12.4424,
  "lat": 47.73101,
  "lon": -53.23299,
  "coord_src": "csd centroid"
 },
 {
  "name": "Upper Island Cove",
  "prov": "NL",
  "code": "1001385",
  "csd": "Upper Island Cove, Town (T)",
  "pop": 1401.0,
  "density": 179.2,
  "land_km2": 7.8164,
  "lat": 47.64985,
  "lon": -53.22327,
  "coord_src": "csd centroid"
 },
 {
  "name": "Bay Roberts",
  "prov": "NL",
  "code": "1001409",
  "csd": "Bay Roberts, Town (T)",
  "pop": 5974.0,
  "density": 243.7,
  "land_km2": 24.5092,
  "lat": 47.58214,
  "lon": -53.2931,
  "coord_src": "csd centroid"
 },
 {
  "name": "Clarke's Beach",
  "prov": "NL",
  "code": "1001429",
  "csd": "Clarke's Beach, Town (T)",
  "pop": 1400.0,
  "density": 110.7,
  "land_km2": 12.6442,
  "lat": 47.53129,
  "lon": -53.303,
  "coord_src": "csd centroid"
 },
 {
  "name": "Conception Bay South",
  "prov": "NL",
  "code": "1001485",
  "csd": "Conception Bay South, Town (T)",
  "pop": 27168.0,
  "density": 454.9,
  "land_km2": 59.7238,
  "lat": 47.49006,
  "lon": -52.99598,
  "coord_src": "csd centroid"
 },
 {
  "name": "Wabana",
  "prov": "NL",
  "code": "1001494",
  "csd": "Wabana, Town (T)",
  "pop": 1815.0,
  "density": 125.3,
  "land_km2": 14.4896,
  "lat": 47.63931,
  "lon": -52.94791,
  "coord_src": "csd centroid"
 },
 {
  "name": "Portugal Cove-St. Philip's",
  "prov": "NL",
  "code": "1001504",
  "csd": "Portugal Cove-St. Philip's, Town (T)",
  "pop": 8415.0,
  "density": 146.1,
  "land_km2": 57.6063,
  "lat": 47.62536,
  "lon": -52.83774,
  "coord_src": "csd centroid"
 },
 {
  "name": "Torbay",
  "prov": "NL",
  "code": "1001509",
  "csd": "Torbay, Town (T)",
  "pop": 7852.0,
  "density": 225.0,
  "land_km2": 34.8944,
  "lat": 47.65956,
  "lon": -52.75311,
  "coord_src": "csd centroid"
 },
 {
  "name": "Logy Bay-Middle Cove-Outer Cove",
  "prov": "NL",
  "code": "1001511",
  "csd": "Logy Bay-Middle Cove-Outer Cove, Town (T)",
  "pop": 2364.0,
  "density": 139.1,
  "land_km2": 16.9894,
  "lat": 47.63679,
  "lon": -52.68711,
  "coord_src": "csd centroid"
 },
 {
  "name": "Paradise",
  "prov": "NL",
  "code": "1001517",
  "csd": "Paradise, Town (T)",
  "pop": 22957.0,
  "density": 773.8,
  "land_km2": 29.6685,
  "lat": 47.53417,
  "lon": -52.88383,
  "coord_src": "csd centroid"
 },
 {
  "name": "St. John's",
  "prov": "NL",
  "code": "1001519",
  "csd": "St. John's, City (CY)",
  "pop": 110525.0,
  "density": 247.8,
  "land_km2": 446.0185,
  "lat": 47.5646794,
  "lon": -52.7066964,
  "coord_src": "audited"
 },
 {
  "name": "Mount Pearl",
  "prov": "NL",
  "code": "1001542",
  "csd": "Mount Pearl, City (CY)",
  "pop": 22477.0,
  "density": 1436.2,
  "land_km2": 15.6508,
  "lat": 47.5195,
  "lon": -52.81234,
  "coord_src": "csd centroid"
 },
 {
  "name": "Grand Bank",
  "prov": "NL",
  "code": "1002019",
  "csd": "Grand Bank, Town (T)",
  "pop": 2152.0,
  "density": 127.9,
  "land_km2": 16.8236,
  "lat": 47.08964,
  "lon": -55.75523,
  "coord_src": "csd centroid"
 },
 {
  "name": "Harbour Breton",
  "prov": "NL",
  "code": "1003008",
  "csd": "Harbour Breton, Town (T)",
  "pop": 1477.0,
  "density": 106.9,
  "land_km2": 13.8184,
  "lat": 47.47719,
  "lon": -55.8238,
  "coord_src": "csd centroid"
 },
 {
  "name": "Stephenville",
  "prov": "NL",
  "code": "1004019",
  "csd": "Stephenville, Town (T)",
  "pop": 6540.0,
  "density": 185.4,
  "land_km2": 35.2662,
  "lat": 48.54838,
  "lon": -58.54855,
  "coord_src": "csd centroid"
 },
 {
  "name": "Kippens",
  "prov": "NL",
  "code": "1004020",
  "csd": "Kippens, Town (T)",
  "pop": 1842.0,
  "density": 129.4,
  "land_km2": 14.235,
  "lat": 48.5584,
  "lon": -58.63415,
  "coord_src": "csd centroid"
 },
 {
  "name": "Massey Drive",
  "prov": "NL",
  "code": "1005017",
  "csd": "Massey Drive, Town (T)",
  "pop": 1606.0,
  "density": 655.1,
  "land_km2": 2.4517,
  "lat": 48.93654,
  "lon": -57.89343,
  "coord_src": "csd centroid"
 },
 {
  "name": "Corner Brook",
  "prov": "NL",
  "code": "1005018",
  "csd": "Corner Brook, City (CY)",
  "pop": 19333.0,
  "density": 130.7,
  "land_km2": 147.8817,
  "lat": 48.95317,
  "lon": -57.947388,
  "coord_src": "audited"
 },
 {
  "name": "Irishtown-Summerside",
  "prov": "NL",
  "code": "1005030",
  "csd": "Irishtown-Summerside, Town (T)",
  "pop": 1260.0,
  "density": 106.0,
  "land_km2": 11.8819,
  "lat": 48.98785,
  "lon": -57.95414,
  "coord_src": "csd centroid"
 },
 {
  "name": "Gander",
  "prov": "NL",
  "code": "1006009",
  "csd": "Gander, Town (T)",
  "pop": 11880.0,
  "density": 113.7,
  "land_km2": 104.5281,
  "lat": 48.9592291,
  "lon": -54.6187879,
  "coord_src": "audited"
 },
 {
  "name": "Grand Falls-Windsor",
  "prov": "NL",
  "code": "1006017",
  "csd": "Grand Falls-Windsor, Town (T)",
  "pop": 13853.0,
  "density": 252.6,
  "land_km2": 54.8437,
  "lat": 48.944151,
  "lon": -55.652618,
  "coord_src": "audited"
 },
 {
  "name": "Bishop's Falls",
  "prov": "NL",
  "code": "1006019",
  "csd": "Bishop's Falls, Town (T)",
  "pop": 3082.0,
  "density": 116.8,
  "land_km2": 26.3766,
  "lat": 49.01988,
  "lon": -55.48965,
  "coord_src": "csd centroid"
 },
 {
  "name": "Botwood",
  "prov": "NL",
  "code": "1006022",
  "csd": "Botwood, Town (T)",
  "pop": 2778.0,
  "density": 190.8,
  "land_km2": 14.5615,
  "lat": 49.13441,
  "lon": -55.37218,
  "coord_src": "csd centroid"
 },
 {
  "name": "Bonavista",
  "prov": "NL",
  "code": "1007023",
  "csd": "Bonavista, Town (T)",
  "pop": 3190.0,
  "density": 101.1,
  "land_km2": 31.5628,
  "lat": 48.6541763,
  "lon": -53.110338,
  "coord_src": "audited"
 },
 {
  "name": "Springdale",
  "prov": "NL",
  "code": "1008061",
  "csd": "Springdale, Town (T)",
  "pop": 2965.0,
  "density": 169.8,
  "land_km2": 17.4568,
  "lat": 49.5126,
  "lon": -56.0624,
  "coord_src": "csd centroid"
 },
 {
  "name": "Labrador City",
  "prov": "NL",
  "code": "1010032",
  "csd": "Labrador City, Town (T)",
  "pop": 7412.0,
  "density": 217.3,
  "land_km2": 34.1091,
  "lat": 52.95912,
  "lon": -66.93686,
  "coord_src": "csd centroid"
 },
 {
  "name": "Souris",
  "prov": "PE",
  "code": "1101036",
  "csd": "Souris, Town (T)",
  "pop": 1079.0,
  "density": 299.0,
  "land_km2": 3.6085,
  "lat": 46.35573,
  "lon": -62.24651,
  "coord_src": "csd centroid"
 },
 {
  "name": "Charlottetown",
  "prov": "PE",
  "code": "1102075",
  "csd": "Charlottetown, City (CY)",
  "pop": 38809.0,
  "density": 876.6,
  "land_km2": 44.2714,
  "lat": 46.2354187,
  "lon": -63.1265388,
  "coord_src": "audited"
 },
 {
  "name": "Stratford",
  "prov": "PE",
  "code": "1102080",
  "csd": "Stratford, Town (T)",
  "pop": 10927.0,
  "density": 482.0,
  "land_km2": 22.6703,
  "lat": 46.21367,
  "lon": -63.08151,
  "coord_src": "csd centroid"
 },
 {
  "name": "Cornwall",
  "prov": "PE",
  "code": "1102085",
  "csd": "Cornwall, Town (T)",
  "pop": 6574.0,
  "density": 233.0,
  "land_km2": 28.2117,
  "lat": 46.23801,
  "lon": -63.20653,
  "coord_src": "csd centroid"
 },
 {
  "name": "Kensington",
  "prov": "PE",
  "code": "1103014",
  "csd": "Kensington, Town (T)",
  "pop": 1812.0,
  "density": 571.6,
  "land_km2": 3.17,
  "lat": 46.43707,
  "lon": -63.63625,
  "coord_src": "csd centroid"
 },
 {
  "name": "Summerside",
  "prov": "PE",
  "code": "1103025",
  "csd": "Summerside, City (CY)",
  "pop": 16001.0,
  "density": 567.2,
  "land_km2": 28.2118,
  "lat": 46.394259,
  "lon": -63.7892386,
  "coord_src": "audited"
 },
 {
  "name": "Alberton",
  "prov": "PE",
  "code": "1103052",
  "csd": "Alberton, Town (T)",
  "pop": 1301.0,
  "density": 277.0,
  "land_km2": 4.6964,
  "lat": 46.81299,
  "lon": -64.06567,
  "coord_src": "csd centroid"
 },
 {
  "name": "Shelburne",
  "prov": "NS",
  "code": "1201008",
  "csd": "Shelburne, Town (T)",
  "pop": 1644.0,
  "density": 187.9,
  "land_km2": 8.7495,
  "lat": 43.7703,
  "lon": -65.31891,
  "coord_src": "csd centroid"
 },
 {
  "name": "Yarmouth (District)",
  "prov": "NS",
  "code": "1202004",
  "csd": "Yarmouth, Municipal district (MD)",
  "pop": 10067.0,
  "density": 17.2,
  "land_km2": 584.686,
  "lat": 43.8372648,
  "lon": -66.1157,
  "coord_src": "audited"
 },
 {
  "name": "Yarmouth (Town)",
  "prov": "NS",
  "code": "1202006",
  "csd": "Yarmouth, Town (T)",
  "pop": 6829.0,
  "density": 646.3,
  "land_km2": 10.566,
  "lat": 43.8372648,
  "lon": -66.1157,
  "coord_src": "audited"
 },
 {
  "name": "Digby (District)",
  "prov": "NS",
  "code": "1203004",
  "csd": "Digby, Municipal district (MD)",
  "pop": 7242.0,
  "density": 4.4,
  "land_km2": 1654.586,
  "lat": 44.6194028,
  "lon": -65.758575,
  "coord_src": "audited"
 },
 {
  "name": "Digby (Town)",
  "prov": "NS",
  "code": "1203006",
  "csd": "Digby, Town (T)",
  "pop": 2001.0,
  "density": 634.0,
  "land_km2": 3.1563,
  "lat": 44.6194028,
  "lon": -65.758575,
  "coord_src": "audited"
 },
 {
  "name": "Annapolis Royal",
  "prov": "NS",
  "code": "1205008",
  "csd": "Annapolis Royal, Town (T)",
  "pop": 530.0,
  "density": 268.3,
  "land_km2": 1.9754,
  "lat": 44.7419775,
  "lon": -65.5160971,
  "coord_src": "audited"
 },
 {
  "name": "Middleton",
  "prov": "NS",
  "code": "1205016",
  "csd": "Middleton, Town (T)",
  "pop": 1873.0,
  "density": 337.3,
  "land_km2": 5.5529,
  "lat": 44.94469,
  "lon": -65.0732,
  "coord_src": "csd centroid"
 },
 {
  "name": "Lunenburg (District)",
  "prov": "NS",
  "code": "1206001",
  "csd": "Lunenburg, Municipal district (MD)",
  "pop": 25545.0,
  "density": 14.5,
  "land_km2": 1757.7926,
  "lat": 44.3774954,
  "lon": -64.3154816,
  "coord_src": "audited"
 },
 {
  "name": "Bridgewater",
  "prov": "NS",
  "code": "1206004",
  "csd": "Bridgewater, Town (T)",
  "pop": 8790.0,
  "density": 644.9,
  "land_km2": 13.6297,
  "lat": 44.3774134,
  "lon": -64.5193946,
  "coord_src": "audited"
 },
 {
  "name": "Lunenburg (Town)",
  "prov": "NS",
  "code": "1206006",
  "csd": "Lunenburg, Town (T)",
  "pop": 2396.0,
  "density": 593.3,
  "land_km2": 4.0382,
  "lat": 44.3774954,
  "lon": -64.3154816,
  "coord_src": "audited"
 },
 {
  "name": "Mahone Bay",
  "prov": "NS",
  "code": "1206008",
  "csd": "Mahone Bay, Town (T)",
  "pop": 1064.0,
  "density": 341.4,
  "land_km2": 3.1163,
  "lat": 44.4488931,
  "lon": -64.387173,
  "coord_src": "audited"
 },
 {
  "name": "Chester",
  "prov": "NS",
  "code": "1206009",
  "csd": "Chester, Municipal district (MD)",
  "pop": 10693.0,
  "density": 9.5,
  "land_km2": 1120.6146,
  "lat": 44.5413322,
  "lon": -64.2411853,
  "coord_src": "audited"
 },
 {
  "name": "Berwick",
  "prov": "NS",
  "code": "1207004",
  "csd": "Berwick, Town (T)",
  "pop": 2455.0,
  "density": 375.8,
  "land_km2": 6.5336,
  "lat": 45.04808,
  "lon": -64.73382,
  "coord_src": "csd centroid"
 },
 {
  "name": "Kentville",
  "prov": "NS",
  "code": "1207012",
  "csd": "Kentville, Town (T)",
  "pop": 6630.0,
  "density": 388.2,
  "land_km2": 17.081,
  "lat": 45.07206,
  "lon": -64.51684,
  "coord_src": "csd centroid"
 },
 {
  "name": "Wolfville",
  "prov": "NS",
  "code": "1207024",
  "csd": "Wolfville, Town (T)",
  "pop": 5057.0,
  "density": 783.3,
  "land_km2": 6.4557,
  "lat": 45.0914073,
  "lon": -64.3645102,
  "coord_src": "audited"
 },
 {
  "name": "Halifax",
  "prov": "NS",
  "code": "1209034",
  "csd": "Halifax, Regional municipality (RGM)",
  "pop": 439819.0,
  "density": 80.3,
  "land_km2": 5475.5738,
  "lat": 44.648618,
  "lon": -63.5859487,
  "coord_src": "audited"
 },
 {
  "name": "Truro",
  "prov": "NS",
  "code": "1210006",
  "csd": "Truro, Town (T)",
  "pop": 12954.0,
  "density": 345.3,
  "land_km2": 37.5168,
  "lat": 45.3656974,
  "lon": -63.2864971,
  "coord_src": "audited"
 },
 {
  "name": "Amherst",
  "prov": "NS",
  "code": "1211011",
  "csd": "Amherst, Town (T)",
  "pop": 9404.0,
  "density": 779.4,
  "land_km2": 12.0662,
  "lat": 45.82343,
  "lon": -64.20536,
  "coord_src": "csd centroid"
 },
 {
  "name": "Oxford",
  "prov": "NS",
  "code": "1211012",
  "csd": "Oxford, Town (T)",
  "pop": 1170.0,
  "density": 109.6,
  "land_km2": 10.6762,
  "lat": 45.73157,
  "lon": -63.86567,
  "coord_src": "csd centroid"
 },
 {
  "name": "Pictou",
  "prov": "NS",
  "code": "1212004",
  "csd": "Pictou, Town (T)",
  "pop": 3107.0,
  "density": 388.7,
  "land_km2": 7.9933,
  "lat": 45.68346,
  "lon": -62.71458,
  "coord_src": "csd centroid"
 },
 {
  "name": "Westville",
  "prov": "NS",
  "code": "1212008",
  "csd": "Westville, Town (T)",
  "pop": 3540.0,
  "density": 248.6,
  "land_km2": 14.2393,
  "lat": 45.5546,
  "lon": -62.71068,
  "coord_src": "csd centroid"
 },
 {
  "name": "Stellarton",
  "prov": "NS",
  "code": "1212009",
  "csd": "Stellarton, Town (T)",
  "pop": 4007.0,
  "density": 445.6,
  "land_km2": 8.9918,
  "lat": 45.56198,
  "lon": -62.67085,
  "coord_src": "csd centroid"
 },
 {
  "name": "New Glasgow",
  "prov": "NS",
  "code": "1212014",
  "csd": "New Glasgow, Town (T)",
  "pop": 9471.0,
  "density": 951.3,
  "land_km2": 9.9557,
  "lat": 45.58463,
  "lon": -62.63772,
  "coord_src": "csd centroid"
 },
 {
  "name": "Trenton",
  "prov": "NS",
  "code": "1212016",
  "csd": "Trenton, Town (T)",
  "pop": 2407.0,
  "density": 396.7,
  "land_km2": 6.0671,
  "lat": 45.61551,
  "lon": -62.62917,
  "coord_src": "csd centroid"
 },
 {
  "name": "Antigonish (Subd. A, Subdivision of county municipality)",
  "prov": "NS",
  "code": "1214001",
  "csd": "Antigonish, Subd. A, Subdivision of county municipality (SC)",
  "pop": 8963.0,
  "density": 9.7,
  "land_km2": 926.4313,
  "lat": 45.6213607,
  "lon": -61.9904928,
  "coord_src": "audited"
 },
 {
  "name": "Antigonish (Town)",
  "prov": "NS",
  "code": "1214002",
  "csd": "Antigonish, Town (T)",
  "pop": 4656.0,
  "density": 934.5,
  "land_km2": 4.9821,
  "lat": 45.6213607,
  "lon": -61.9904928,
  "coord_src": "audited"
 },
 {
  "name": "Port Hawkesbury",
  "prov": "NS",
  "code": "1215002",
  "csd": "Port Hawkesbury, Town (T)",
  "pop": 3210.0,
  "density": 396.3,
  "land_km2": 8.0998,
  "lat": 45.62318,
  "lon": -61.35334,
  "coord_src": "csd centroid"
 },
 {
  "name": "Cape Breton",
  "prov": "NS",
  "code": "1217030",
  "csd": "Cape Breton, Regional municipality (RGM)",
  "pop": 93694.0,
  "density": 38.7,
  "land_km2": 2419.6959,
  "lat": 46.1382112,
  "lon": -60.1941912,
  "coord_src": "audited",
  "osm": "Cape Breton Island, Nova Scotia, Canada",
  "alias": "Sydney"
 },
 {
  "name": "Saint John",
  "prov": "NB",
  "code": "1301006",
  "csd": "Saint John, City (C)",
  "pop": 69895.0,
  "density": 221.5,
  "land_km2": 315.5893,
  "lat": 45.272764,
  "lon": -66.0627914,
  "coord_src": "audited"
 },
 {
  "name": "Saint Andrews",
  "prov": "NB",
  "code": "1302026",
  "csd": "Saint Andrews, Town (TV)",
  "pop": 2048.0,
  "density": 245.3,
  "land_km2": 8.3502,
  "lat": 45.0749302,
  "lon": -67.0516937,
  "coord_src": "audited",
  "alias": "St. Andrews"
 },
 {
  "name": "St. Stephen",
  "prov": "NB",
  "code": "1302037",
  "csd": "St. Stephen, Town (TV)",
  "pop": 4510.0,
  "density": 328.7,
  "land_km2": 13.7212,
  "lat": 45.18595,
  "lon": -67.29547,
  "coord_src": "csd centroid"
 },
 {
  "name": "Oromocto",
  "prov": "NB",
  "code": "1303012",
  "csd": "Oromocto, Town (TV)",
  "pop": 9045.0,
  "density": 404.5,
  "land_km2": 22.3592,
  "lat": 45.83786,
  "lon": -66.48488,
  "coord_src": "csd centroid"
 },
 {
  "name": "Hampton",
  "prov": "NB",
  "code": "1305007",
  "csd": "Hampton, Town (TV)",
  "pop": 4395.0,
  "density": 209.6,
  "land_km2": 20.9681,
  "lat": 45.52515,
  "lon": -65.84255,
  "coord_src": "csd centroid"
 },
 {
  "name": "Sussex",
  "prov": "NB",
  "code": "1305022",
  "csd": "Sussex, Town (TV)",
  "pop": 4440.0,
  "density": 498.9,
  "land_km2": 8.8997,
  "lat": 45.72243,
  "lon": -65.50706,
  "coord_src": "csd centroid"
 },
 {
  "name": "Sussex Corner",
  "prov": "NB",
  "code": "1305023",
  "csd": "Sussex Corner, Village (VL)",
  "pop": 1458.0,
  "density": 156.4,
  "land_km2": 9.3211,
  "lat": 45.71208,
  "lon": -65.4682,
  "coord_src": "csd centroid"
 },
 {
  "name": "Rothesay",
  "prov": "NB",
  "code": "1305045",
  "csd": "Rothesay, Town (TV)",
  "pop": 11977.0,
  "density": 346.2,
  "land_km2": 34.5941,
  "lat": 45.38263,
  "lon": -65.96965,
  "coord_src": "csd centroid"
 },
 {
  "name": "Quispamsis",
  "prov": "NB",
  "code": "1305057",
  "csd": "Quispamsis, Town (TV)",
  "pop": 18768.0,
  "density": 329.4,
  "land_km2": 56.9698,
  "lat": 45.43446,
  "lon": -65.93507,
  "coord_src": "csd centroid"
 },
 {
  "name": "Riverview",
  "prov": "NB",
  "code": "1306020",
  "csd": "Riverview, Town (TV)",
  "pop": 20584.0,
  "density": 603.7,
  "land_km2": 34.098,
  "lat": 46.05059,
  "lon": -64.81014,
  "coord_src": "csd centroid"
 },
 {
  "name": "Hillsborough",
  "prov": "NB",
  "code": "1306025",
  "csd": "Hillsborough, Village (VL)",
  "pop": 1348.0,
  "density": 105.2,
  "land_km2": 12.8078,
  "lat": 45.92058,
  "lon": -64.65066,
  "coord_src": "csd centroid"
 },
 {
  "name": "Cap-Pelé",
  "prov": "NB",
  "code": "1307007",
  "csd": "Cap-Pelé, Village (VL)",
  "pop": 2441.0,
  "density": 106.3,
  "land_km2": 22.9572,
  "lat": 46.21699,
  "lon": -64.28235,
  "coord_src": "csd centroid"
 },
 {
  "name": "Sackville",
  "prov": "NB",
  "code": "1307009",
  "csd": "Sackville, Town (TV)",
  "pop": 6099.0,
  "density": 82.5,
  "land_km2": 73.9079,
  "lat": 45.9079431,
  "lon": -64.3723708,
  "coord_src": "audited"
 },
 {
  "name": "Moncton",
  "prov": "NB",
  "code": "1307022",
  "csd": "Moncton, City (C)",
  "pop": 79470.0,
  "density": 564.9,
  "land_km2": 140.6736,
  "lat": 46.0985679,
  "lon": -64.8004265,
  "coord_src": "audited"
 },
 {
  "name": "Salisbury",
  "prov": "NB",
  "code": "1307028",
  "csd": "Salisbury, Village (VL)",
  "pop": 2387.0,
  "density": 176.1,
  "land_km2": 13.5573,
  "lat": 46.03779,
  "lon": -65.0479,
  "coord_src": "csd centroid"
 },
 {
  "name": "Dieppe",
  "prov": "NB",
  "code": "1307045",
  "csd": "Dieppe, City (C)",
  "pop": 28114.0,
  "density": 365.0,
  "land_km2": 77.0172,
  "lat": 46.0966797,
  "lon": -64.7357347,
  "coord_src": "nominatim",
  "osm": "Ville de Dieppe, Westmorland County, New Brunswick / Nouveau-Brunswick, Canada"
 },
 {
  "name": "Shediac",
  "prov": "NB",
  "code": "1307052",
  "csd": "Shediac, Town (TV)",
  "pop": 7535.0,
  "density": 117.7,
  "land_km2": 64.0031,
  "lat": 46.219454,
  "lon": -64.5492146,
  "coord_src": "nominatim",
  "osm": "Ville de Shediac, Westmorland County, New Brunswick / Nouveau-Brunswick, Canada"
 },
 {
  "name": "Bouctouche",
  "prov": "NB",
  "code": "1308005",
  "csd": "Bouctouche, Town (TV)",
  "pop": 2513.0,
  "density": 137.1,
  "land_km2": 18.3332,
  "lat": 46.47342,
  "lon": -64.74588,
  "coord_src": "csd centroid"
 },
 {
  "name": "Saint-Antoine",
  "prov": "NB",
  "code": "1308007",
  "csd": "Saint-Antoine, Village (VL)",
  "pop": 1791.0,
  "density": 283.6,
  "land_km2": 6.3157,
  "lat": 46.36417,
  "lon": -64.7535,
  "coord_src": "csd centroid"
 },
 {
  "name": "Richibucto",
  "prov": "NB",
  "code": "1308018",
  "csd": "Richibucto, Town (TV)",
  "pop": 1411.0,
  "density": 118.6,
  "land_km2": 11.8952,
  "lat": 46.67999,
  "lon": -64.88037,
  "coord_src": "csd centroid"
 },
 {
  "name": "Rogersville",
  "prov": "NB",
  "code": "1309017",
  "csd": "Rogersville, Village (VL)",
  "pop": 1193.0,
  "density": 165.9,
  "land_km2": 7.1925,
  "lat": 46.73474,
  "lon": -65.42842,
  "coord_src": "csd centroid"
 },
 {
  "name": "Miramichi",
  "prov": "NB",
  "code": "1309050",
  "csd": "Miramichi, City (C)",
  "pop": 17692.0,
  "density": 98.8,
  "land_km2": 178.9807,
  "lat": 47.0298004,
  "lon": -65.4704158,
  "coord_src": "audited"
 },
 {
  "name": "New Maryland",
  "prov": "NB",
  "code": "1310002",
  "csd": "New Maryland, Village (VL)",
  "pop": 4153.0,
  "density": 195.4,
  "land_km2": 21.2495,
  "lat": 45.88713,
  "lon": -66.67989,
  "coord_src": "csd centroid"
 },
 {
  "name": "Fredericton",
  "prov": "NB",
  "code": "1310032",
  "csd": "Fredericton, City (C)",
  "pop": 63116.0,
  "density": 471.3,
  "land_km2": 133.9262,
  "lat": 45.9488278,
  "lon": -66.6291827,
  "coord_src": "audited"
 },
 {
  "name": "Woodstock",
  "prov": "NB",
  "code": "1311006",
  "csd": "Woodstock, Town (TV)",
  "pop": 5553.0,
  "density": 371.1,
  "land_km2": 14.9633,
  "lat": 46.15107,
  "lon": -67.59286,
  "coord_src": "csd centroid"
 },
 {
  "name": "Florenceville-Bristol",
  "prov": "NB",
  "code": "1311027",
  "csd": "Florenceville-Bristol, Town (TV)",
  "pop": 1573.0,
  "density": 100.0,
  "land_km2": 15.7357,
  "lat": 46.45084,
  "lon": -67.59649,
  "coord_src": "csd centroid"
 },
 {
  "name": "Perth-Andover",
  "prov": "NB",
  "code": "1312006",
  "csd": "Perth-Andover, Village (VL)",
  "pop": 1574.0,
  "density": 175.6,
  "land_km2": 8.9634,
  "lat": 46.7395,
  "lon": -67.70995,
  "coord_src": "csd centroid"
 },
 {
  "name": "Plaster Rock",
  "prov": "NB",
  "code": "1312009",
  "csd": "Plaster Rock, Village (VL)",
  "pop": 1002.0,
  "density": 332.9,
  "land_km2": 3.0103,
  "lat": 46.90411,
  "lon": -67.39487,
  "coord_src": "csd centroid"
 },
 {
  "name": "Grand Falls / Grand-Sault",
  "prov": "NB",
  "code": "1312019",
  "csd": "Grand Falls / Grand-Sault, Town (TV)",
  "pop": 5220.0,
  "density": 289.3,
  "land_km2": 18.0427,
  "lat": 47.04157,
  "lon": -67.76254,
  "coord_src": "csd centroid"
 },
 {
  "name": "Saint-Léonard",
  "prov": "NB",
  "code": "1313006",
  "csd": "Saint-Léonard, Town (TV)",
  "pop": 1322.0,
  "density": 247.8,
  "land_km2": 5.3353,
  "lat": 47.17163,
  "lon": -67.91932,
  "coord_src": "csd centroid"
 },
 {
  "name": "Edmundston",
  "prov": "NB",
  "code": "1313027",
  "csd": "Edmundston, City (C)",
  "pop": 16437.0,
  "density": 153.8,
  "land_km2": 106.8388,
  "lat": 47.3637203,
  "lon": -68.3288825,
  "coord_src": "nominatim",
  "osm": "Edmundston, Paroisse de Madawaska, Ville d'Edmundston, Comté de Madawaska, New Brunswick /"
 },
 {
  "name": "Campbellton",
  "prov": "NB",
  "code": "1314014",
  "csd": "Campbellton, City (C)",
  "pop": 7047.0,
  "density": 379.5,
  "land_km2": 18.5708,
  "lat": 47.99388,
  "lon": -66.65463,
  "coord_src": "csd centroid"
 },
 {
  "name": "Dalhousie",
  "prov": "NB",
  "code": "1314017",
  "csd": "Dalhousie, Town (TV)",
  "pop": 3223.0,
  "density": 213.1,
  "land_km2": 15.1228,
  "lat": 48.05032,
  "lon": -66.39251,
  "coord_src": "csd centroid"
 },
 {
  "name": "Saint-Quentin",
  "prov": "NB",
  "code": "1314022",
  "csd": "Saint-Quentin, Town (TV)",
  "pop": 2141.0,
  "density": 504.7,
  "land_km2": 4.242,
  "lat": 47.50976,
  "lon": -67.38924,
  "coord_src": "csd centroid"
 },
 {
  "name": "Bathurst",
  "prov": "NB",
  "code": "1315011",
  "csd": "Bathurst, City (C)",
  "pop": 12157.0,
  "density": 132.7,
  "land_km2": 91.6156,
  "lat": 47.6208671,
  "lon": -65.6537546,
  "coord_src": "audited"
 },
 {
  "name": "Petit-Rocher",
  "prov": "NB",
  "code": "1315014",
  "csd": "Petit-Rocher, Village (VL)",
  "pop": 1954.0,
  "density": 432.2,
  "land_km2": 4.5213,
  "lat": 47.78513,
  "lon": -65.72401,
  "coord_src": "csd centroid"
 },
 {
  "name": "Beresford",
  "prov": "NB",
  "code": "1315015",
  "csd": "Beresford, Town (TV)",
  "pop": 4294.0,
  "density": 223.2,
  "land_km2": 19.2371,
  "lat": 47.69927,
  "lon": -65.70506,
  "coord_src": "csd centroid"
 },
 {
  "name": "Shippagan",
  "prov": "NB",
  "code": "1315031",
  "csd": "Shippagan, Town (TV)",
  "pop": 2672.0,
  "density": 268.3,
  "land_km2": 9.9577,
  "lat": 47.73315,
  "lon": -64.72802,
  "coord_src": "csd centroid"
 },
 {
  "name": "Lamèque",
  "prov": "NB",
  "code": "1315032",
  "csd": "Lamèque, Town (TV)",
  "pop": 1301.0,
  "density": 104.9,
  "land_km2": 12.4027,
  "lat": 47.81393,
  "lon": -64.62527,
  "coord_src": "csd centroid"
 },
 {
  "name": "Gaspé",
  "prov": "QC",
  "code": "2403005",
  "csd": "Gaspé, Ville (V)",
  "pop": 15063.0,
  "density": 13.5,
  "land_km2": 1118.7734,
  "lat": 48.6146774,
  "lon": -66.0665726,
  "coord_src": "audited",
  "osm": "Gaspésie, Québec, Canada",
  "alias": "Gaspe"
 },
 {
  "name": "Price",
  "prov": "QC",
  "code": "2409065",
  "csd": "Price, Village (VL)",
  "pop": 1729.0,
  "density": 688.8,
  "land_km2": 2.5103,
  "lat": 48.60128,
  "lon": -68.12562,
  "coord_src": "csd centroid"
 },
 {
  "name": "Mont-Joli",
  "prov": "QC",
  "code": "2409077",
  "csd": "Mont-Joli, Ville (V)",
  "pop": 6384.0,
  "density": 263.3,
  "land_km2": 24.2416,
  "lat": 48.58415,
  "lon": -68.19305,
  "coord_src": "csd centroid"
 },
 {
  "name": "Rimouski",
  "prov": "QC",
  "code": "2410043",
  "csd": "Rimouski, Ville (V)",
  "pop": 48935.0,
  "density": 144.3,
  "land_km2": 339.1271,
  "lat": 48.450155,
  "lon": -68.529968,
  "coord_src": "audited"
 },
 {
  "name": "Trois-Pistoles",
  "prov": "QC",
  "code": "2411040",
  "csd": "Trois-Pistoles, Ville (V)",
  "pop": 3115.0,
  "density": 408.1,
  "land_km2": 7.6338,
  "lat": 48.12401,
  "lon": -69.16747,
  "coord_src": "csd centroid"
 },
 {
  "name": "Rivière-du-Loup",
  "prov": "QC",
  "code": "2412072",
  "csd": "Rivière-du-Loup, Ville (V)",
  "pop": 20118.0,
  "density": 240.2,
  "land_km2": 83.7425,
  "lat": 47.8541229,
  "lon": -69.5333016,
  "coord_src": "nominatim",
  "osm": "Rivière-du-Loup, Rivière-du-Loup (MRC), Bas-Saint-Laurent, Québec, Canada"
 },
 {
  "name": "La Pocatière",
  "prov": "QC",
  "code": "2414085",
  "csd": "La Pocatière, Ville (V)",
  "pop": 4078.0,
  "density": 192.5,
  "land_km2": 21.1828,
  "lat": 47.3783,
  "lon": -70.03596,
  "coord_src": "csd centroid"
 },
 {
  "name": "Baie-Saint-Paul",
  "prov": "QC",
  "code": "2416013",
  "csd": "Baie-Saint-Paul, Ville (V)",
  "pop": 7371.0,
  "density": 13.5,
  "land_km2": 545.8469,
  "lat": 47.444343,
  "lon": -70.505447,
  "coord_src": "audited"
 },
 {
  "name": "Sainte-Pétronille",
  "prov": "QC",
  "code": "2420030",
  "csd": "Sainte-Pétronille, Village (VL)",
  "pop": 1055.0,
  "density": 244.4,
  "land_km2": 4.3171,
  "lat": 46.85465,
  "lon": -71.12056,
  "coord_src": "csd centroid"
 },
 {
  "name": "Beaupré",
  "prov": "QC",
  "code": "2421025",
  "csd": "Beaupré, Ville (V)",
  "pop": 4117.0,
  "density": 179.2,
  "land_km2": 22.97,
  "lat": 47.06991,
  "lon": -70.91327,
  "coord_src": "csd centroid"
 },
 {
  "name": "Boischatel",
  "prov": "QC",
  "code": "2421045",
  "csd": "Boischatel, Municipalité (MÉ)",
  "pop": 8231.0,
  "density": 404.3,
  "land_km2": 20.3589,
  "lat": 46.91777,
  "lon": -71.15324,
  "coord_src": "csd centroid"
 },
 {
  "name": "Fossambault-sur-le-Lac",
  "prov": "QC",
  "code": "2422010",
  "csd": "Fossambault-sur-le-Lac, Ville (V)",
  "pop": 2327.0,
  "density": 202.6,
  "land_km2": 11.4864,
  "lat": 46.88448,
  "lon": -71.60851,
  "coord_src": "csd centroid"
 },
 {
  "name": "Shannon",
  "prov": "QC",
  "code": "2422020",
  "csd": "Shannon, Ville (V)",
  "pop": 6432.0,
  "density": 101.2,
  "land_km2": 63.5433,
  "lat": 46.8865709,
  "lon": -71.5166406,
  "coord_src": "nominatim",
  "osm": "Shannon, La Jacques-Cartier, Capitale-Nationale, Québec, Canada"
 },
 {
  "name": "Lac-Beauport",
  "prov": "QC",
  "code": "2422040",
  "csd": "Lac-Beauport, Municipalité (MÉ)",
  "pop": 8164.0,
  "density": 132.2,
  "land_km2": 61.7339,
  "lat": 46.944403,
  "lon": -71.296806,
  "coord_src": "nominatim",
  "osm": "Lac-Beauport, La Jacques-Cartier, Capitale-Nationale, Québec, Canada"
 },
 {
  "name": "Québec",
  "prov": "QC",
  "code": "2423027",
  "csd": "Québec, Ville (V)",
  "pop": 549459.0,
  "density": 1214.8,
  "land_km2": 452.2999,
  "lat": 46.8137431,
  "lon": -71.2084061,
  "coord_src": "audited",
  "osm": "Québec, Agglomération de Québec, Capitale-Nationale, Québec, Canada",
  "alias": "Quebec City"
 },
 {
  "name": "L'Ancienne-Lorette",
  "prov": "QC",
  "code": "2423057",
  "csd": "L'Ancienne-Lorette, Ville (V)",
  "pop": 16970.0,
  "density": 2197.0,
  "land_km2": 7.7242,
  "lat": 46.80434,
  "lon": -71.35609,
  "coord_src": "csd centroid"
 },
 {
  "name": "Saint-Augustin-de-Desmaures",
  "prov": "QC",
  "code": "2423072",
  "csd": "Saint-Augustin-de-Desmaures, Ville (V)",
  "pop": 19907.0,
  "density": 232.0,
  "land_km2": 85.7955,
  "lat": 46.743354,
  "lon": -71.4569733,
  "coord_src": "nominatim",
  "osm": "Saint-Augustin-de-Desmaures, Agglomération de Québec, Capitale-Nationale, Québec, Canada"
 },
 {
  "name": "Lévis",
  "prov": "QC",
  "code": "2425213",
  "csd": "Lévis, Ville (V)",
  "pop": 149683.0,
  "density": 334.1,
  "land_km2": 448.0654,
  "lat": 46.8033114,
  "lon": -71.1778792,
  "coord_src": "nominatim",
  "osm": "Lévis, Chaudière-Appalaches, Québec, Canada"
 },
 {
  "name": "Sainte-Marie",
  "prov": "QC",
  "code": "2426030",
  "csd": "Sainte-Marie, Ville (V)",
  "pop": 13134.0,
  "density": 122.1,
  "land_km2": 107.548,
  "lat": 46.450395,
  "lon": -71.030731,
  "coord_src": "nominatim",
  "osm": "Sainte-Marie, La Nouvelle-Beauce, Chaudière-Appalaches, Québec, Canada"
 },
 {
  "name": "Saint-Georges",
  "prov": "QC",
  "code": "2429073",
  "csd": "Saint-Georges, Ville (V)",
  "pop": 32935.0,
  "density": 165.4,
  "land_km2": 199.0768,
  "lat": 46.122987,
  "lon": -70.671959,
  "coord_src": "nominatim",
  "osm": "Saint-Georges, Beauce-Sartigan, Chaudière-Appalaches, Québec, Canada"
 },
 {
  "name": "Lac-Mégantic",
  "prov": "QC",
  "code": "2430030",
  "csd": "Lac-Mégantic, Ville (V)",
  "pop": 5747.0,
  "density": 261.5,
  "land_km2": 21.9797,
  "lat": 45.58568,
  "lon": -70.88585,
  "coord_src": "csd centroid"
 },
 {
  "name": "Disraeli",
  "prov": "QC",
  "code": "2431015",
  "csd": "Disraeli, Ville (V)",
  "pop": 2360.0,
  "density": 347.1,
  "land_km2": 6.7988,
  "lat": 45.89589,
  "lon": -71.34595,
  "coord_src": "csd centroid"
 },
 {
  "name": "Thetford Mines",
  "prov": "QC",
  "code": "2431084",
  "csd": "Thetford Mines, Ville (V)",
  "pop": 26072.0,
  "density": 115.4,
  "land_km2": 225.9736,
  "lat": 46.091329,
  "lon": -71.30127,
  "coord_src": "nominatim",
  "osm": "Thetford Mines, Les Appalaches, Chaudière-Appalaches, Québec, Canada"
 },
 {
  "name": "East Broughton",
  "prov": "QC",
  "code": "2431122",
  "csd": "East Broughton, Municipalité (MÉ)",
  "pop": 2248.0,
  "density": 253.9,
  "land_km2": 8.8556,
  "lat": 46.22332,
  "lon": -71.08152,
  "coord_src": "csd centroid"
 },
 {
  "name": "Plessisville",
  "prov": "QC",
  "code": "2432040",
  "csd": "Plessisville, Ville (V)",
  "pop": 6414.0,
  "density": 1304.2,
  "land_km2": 4.9178,
  "lat": 46.22248,
  "lon": -71.77481,
  "coord_src": "csd centroid"
 },
 {
  "name": "Laurier-Station",
  "prov": "QC",
  "code": "2433060",
  "csd": "Laurier-Station, Village (VL)",
  "pop": 2570.0,
  "density": 211.3,
  "land_km2": 12.1601,
  "lat": 46.54247,
  "lon": -71.63753,
  "coord_src": "csd centroid"
 },
 {
  "name": "Donnacona",
  "prov": "QC",
  "code": "2434025",
  "csd": "Donnacona, Ville (V)",
  "pop": 7436.0,
  "density": 368.2,
  "land_km2": 20.1957,
  "lat": 46.68706,
  "lon": -71.71092,
  "coord_src": "csd centroid"
 },
 {
  "name": "Saint-Marc-des-Carrières",
  "prov": "QC",
  "code": "2434065",
  "csd": "Saint-Marc-des-Carrières, Ville (V)",
  "pop": 2901.0,
  "density": 167.8,
  "land_km2": 17.2923,
  "lat": 46.67591,
  "lon": -72.04142,
  "coord_src": "csd centroid"
 },
 {
  "name": "Trois-Rivières",
  "prov": "QC",
  "code": "2437067",
  "csd": "Trois-Rivières, Ville (V)",
  "pop": 139163.0,
  "density": 482.1,
  "land_km2": 288.6548,
  "lat": 46.3432325,
  "lon": -72.5428485,
  "coord_src": "audited",
  "osm": "Trois-Rivières, Mauricie, Québec, Canada",
  "alias": "Trois-Rivieres"
 },
 {
  "name": "Victoriaville",
  "prov": "QC",
  "code": "2439062",
  "csd": "Victoriaville, Ville (V)",
  "pop": 47760.0,
  "density": 566.4,
  "land_km2": 84.3255,
  "lat": 46.0554948,
  "lon": -71.9598586,
  "coord_src": "nominatim",
  "osm": "Victoriaville, Arthabaska, Centre-du-Québec, Québec, Canada"
 },
 {
  "name": "Val-des-Sources",
  "prov": "QC",
  "code": "2440043",
  "csd": "Val-des-Sources, Ville (V)",
  "pop": 7088.0,
  "density": 234.3,
  "land_km2": 30.2513,
  "lat": 45.77277,
  "lon": -71.94618,
  "coord_src": "csd centroid"
 },
 {
  "name": "East Angus",
  "prov": "QC",
  "code": "2441060",
  "csd": "East Angus, Ville (V)",
  "pop": 3840.0,
  "density": 489.8,
  "land_km2": 7.8394,
  "lat": 45.48154,
  "lon": -71.66052,
  "coord_src": "csd centroid"
 },
 {
  "name": "Valcourt",
  "prov": "QC",
  "code": "2442055",
  "csd": "Valcourt, Ville (V)",
  "pop": 2139.0,
  "density": 395.2,
  "land_km2": 5.4126,
  "lat": 45.49634,
  "lon": -72.31539,
  "coord_src": "csd centroid"
 },
 {
  "name": "Windsor",
  "prov": "QC",
  "code": "2442088",
  "csd": "Windsor, Ville (V)",
  "pop": 5294.0,
  "density": 364.3,
  "land_km2": 14.5328,
  "lat": 45.57012,
  "lon": -71.99646,
  "coord_src": "csd centroid"
 },
 {
  "name": "Richmond",
  "prov": "QC",
  "code": "2442098",
  "csd": "Richmond, Ville (V)",
  "pop": 3259.0,
  "density": 466.8,
  "land_km2": 6.9815,
  "lat": 45.66247,
  "lon": -72.14064,
  "coord_src": "csd centroid"
 },
 {
  "name": "Sherbrooke",
  "prov": "QC",
  "code": "2443027",
  "csd": "Sherbrooke, Ville (V)",
  "pop": 172950.0,
  "density": 489.4,
  "land_km2": 353.3966,
  "lat": 45.403271,
  "lon": -71.889038,
  "coord_src": "audited"
 },
 {
  "name": "Stanstead",
  "prov": "QC",
  "code": "2445008",
  "csd": "Stanstead, Ville (V)",
  "pop": 2824.0,
  "density": 128.7,
  "land_km2": 21.9454,
  "lat": 45.01615,
  "lon": -72.10463,
  "coord_src": "csd centroid"
 },
 {
  "name": "Ayer's Cliff",
  "prov": "QC",
  "code": "2445035",
  "csd": "Ayer's Cliff, Village (VL)",
  "pop": 1180.0,
  "density": 213.3,
  "land_km2": 5.5313,
  "lat": 45.17347,
  "lon": -72.04959,
  "coord_src": "csd centroid"
 },
 {
  "name": "North Hatley",
  "prov": "QC",
  "code": "2445050",
  "csd": "North Hatley, Village (VL)",
  "pop": 675.0,
  "density": 201.5,
  "land_km2": 3.3501,
  "lat": 45.275611,
  "lon": -71.972122,
  "coord_src": "audited"
 },
 {
  "name": "Magog",
  "prov": "QC",
  "code": "2445072",
  "csd": "Magog, Ville (V)",
  "pop": 28312.0,
  "density": 196.3,
  "land_km2": 144.2618,
  "lat": 45.2658014,
  "lon": -72.1480686,
  "coord_src": "audited"
 },
 {
  "name": "Bedford",
  "prov": "QC",
  "code": "2446035",
  "csd": "Bedford, Ville (V)",
  "pop": 2558.0,
  "density": 604.3,
  "land_km2": 4.2328,
  "lat": 45.12083,
  "lon": -72.98273,
  "coord_src": "csd centroid"
 },
 {
  "name": "Cowansville",
  "prov": "QC",
  "code": "2446080",
  "csd": "Cowansville, Ville (V)",
  "pop": 15234.0,
  "density": 325.0,
  "land_km2": 46.8747,
  "lat": 45.20712,
  "lon": -72.76532,
  "coord_src": "csd centroid"
 },
 {
  "name": "Farnham",
  "prov": "QC",
  "code": "2446112",
  "csd": "Farnham, Ville (V)",
  "pop": 10149.0,
  "density": 110.2,
  "land_km2": 92.1181,
  "lat": 45.2831,
  "lon": -72.974968,
  "coord_src": "nominatim",
  "osm": "Farnham, Brome-Missisquoi, Estrie, Québec, Canada"
 },
 {
  "name": "Granby",
  "prov": "QC",
  "code": "2447017",
  "csd": "Granby, Ville (V)",
  "pop": 69025.0,
  "density": 452.1,
  "land_km2": 152.6858,
  "lat": 45.3990409,
  "lon": -72.721834,
  "coord_src": "audited"
 },
 {
  "name": "Waterloo",
  "prov": "QC",
  "code": "2447025",
  "csd": "Waterloo, Ville (V)",
  "pop": 4920.0,
  "density": 402.2,
  "land_km2": 12.2329,
  "lat": 45.33631,
  "lon": -72.52802,
  "coord_src": "csd centroid"
 },
 {
  "name": "Roxton Falls",
  "prov": "QC",
  "code": "2448010",
  "csd": "Roxton Falls, Village (VL)",
  "pop": 1322.0,
  "density": 267.7,
  "land_km2": 4.9388,
  "lat": 45.57674,
  "lon": -72.52396,
  "coord_src": "csd centroid"
 },
 {
  "name": "Drummondville",
  "prov": "QC",
  "code": "2449058",
  "csd": "Drummondville, Ville (V)",
  "pop": 79258.0,
  "density": 320.7,
  "land_km2": 247.1081,
  "lat": 45.8864303,
  "lon": -72.5018764,
  "coord_src": "audited"
 },
 {
  "name": "Notre-Dame-du-Bon-Conseil",
  "prov": "QC",
  "code": "2449075",
  "csd": "Notre-Dame-du-Bon-Conseil, Village (VL)",
  "pop": 1708.0,
  "density": 406.5,
  "land_km2": 4.2014,
  "lat": 46.00076,
  "lon": -72.34901,
  "coord_src": "csd centroid"
 },
 {
  "name": "Louiseville",
  "prov": "QC",
  "code": "2451015",
  "csd": "Louiseville, Ville (V)",
  "pop": 7340.0,
  "density": 117.3,
  "land_km2": 62.589,
  "lat": 46.255609,
  "lon": -72.947502,
  "coord_src": "nominatim",
  "osm": "Louiseville, Maskinongé (MRC), Mauricie, Québec, Canada"
 },
 {
  "name": "Lavaltrie",
  "prov": "QC",
  "code": "2452007",
  "csd": "Lavaltrie, Ville (V)",
  "pop": 14425.0,
  "density": 211.4,
  "land_km2": 68.22,
  "lat": 45.883078,
  "lon": -73.282242,
  "coord_src": "nominatim",
  "osm": "Lavaltrie, D'Autray, Lanaudière, Québec, Canada"
 },
 {
  "name": "Berthierville",
  "prov": "QC",
  "code": "2452035",
  "csd": "Berthierville, Ville (V)",
  "pop": 4386.0,
  "density": 647.8,
  "land_km2": 6.7711,
  "lat": 46.08234,
  "lon": -73.18792,
  "coord_src": "csd centroid"
 },
 {
  "name": "Saint-Gabriel",
  "prov": "QC",
  "code": "2452080",
  "csd": "Saint-Gabriel, Ville (V)",
  "pop": 2803.0,
  "density": 998.6,
  "land_km2": 2.8068,
  "lat": 46.31362,
  "lon": -73.38618,
  "coord_src": "csd centroid"
 },
 {
  "name": "Saint-Joseph-de-Sorel",
  "prov": "QC",
  "code": "2453050",
  "csd": "Saint-Joseph-de-Sorel, Ville (V)",
  "pop": 1581.0,
  "density": 1164.5,
  "land_km2": 1.3577,
  "lat": 46.0446,
  "lon": -73.13076,
  "coord_src": "csd centroid"
 },
 {
  "name": "Sorel-Tracy",
  "prov": "QC",
  "code": "2453052",
  "csd": "Sorel-Tracy, Ville (V)",
  "pop": 35165.0,
  "density": 614.0,
  "land_km2": 57.2759,
  "lat": 46.01247,
  "lon": -73.10929,
  "coord_src": "csd centroid"
 },
 {
  "name": "Sainte-Madeleine",
  "prov": "QC",
  "code": "2454025",
  "csd": "Sainte-Madeleine, Village (VL)",
  "pop": 2268.0,
  "density": 422.9,
  "land_km2": 5.363,
  "lat": 45.59575,
  "lon": -73.09472,
  "coord_src": "csd centroid"
 },
 {
  "name": "Saint-Hyacinthe",
  "prov": "QC",
  "code": "2454048",
  "csd": "Saint-Hyacinthe, Ville (V)",
  "pop": 57239.0,
  "density": 303.1,
  "land_km2": 188.8511,
  "lat": 45.627484,
  "lon": -72.940636,
  "coord_src": "nominatim",
  "osm": "Saint-Hyacinthe, Les Maskoutains, Montérégie, Québec, Canada"
 },
 {
  "name": "Marieville",
  "prov": "QC",
  "code": "2455048",
  "csd": "Marieville, Ville (V)",
  "pop": 11332.0,
  "density": 179.2,
  "land_km2": 63.2313,
  "lat": 45.4314173,
  "lon": -73.1637449,
  "coord_src": "nominatim",
  "osm": "Marieville, Rouville, Montérégie, Québec, Canada"
 },
 {
  "name": "Richelieu",
  "prov": "QC",
  "code": "2455057",
  "csd": "Richelieu, Ville (V)",
  "pop": 5742.0,
  "density": 185.4,
  "land_km2": 30.9643,
  "lat": 45.40948,
  "lon": -73.22658,
  "coord_src": "csd centroid"
 },
 {
  "name": "Venise-en-Québec",
  "prov": "QC",
  "code": "2456005",
  "csd": "Venise-en-Québec, Municipalité (MÉ)",
  "pop": 1899.0,
  "density": 144.7,
  "land_km2": 13.1275,
  "lat": 45.08191,
  "lon": -73.14582,
  "coord_src": "csd centroid"
 },
 {
  "name": "Saint-Jean-sur-Richelieu",
  "prov": "QC",
  "code": "2456083",
  "csd": "Saint-Jean-sur-Richelieu, Ville (V)",
  "pop": 97873.0,
  "density": 431.3,
  "land_km2": 226.9333,
  "lat": 45.3056879,
  "lon": -73.2533401,
  "coord_src": "nominatim",
  "osm": "Saint-Jean-sur-Richelieu, Le Haut-Richelieu, Montérégie, Québec, Canada"
 },
 {
  "name": "Chambly",
  "prov": "QC",
  "code": "2457005",
  "csd": "Chambly, Ville (V)",
  "pop": 31444.0,
  "density": 1253.7,
  "land_km2": 25.0809,
  "lat": 45.43114,
  "lon": -73.28705,
  "coord_src": "csd centroid"
 },
 {
  "name": "Carignan",
  "prov": "QC",
  "code": "2457010",
  "csd": "Carignan, Ville (V)",
  "pop": 11740.0,
  "density": 189.1,
  "land_km2": 62.0694,
  "lat": 45.437955,
  "lon": -73.3554902,
  "coord_src": "nominatim",
  "osm": "Carignan, La Vallée-du-Richelieu, Montérégie, Québec, Canada"
 },
 {
  "name": "Saint-Basile-le-Grand",
  "prov": "QC",
  "code": "2457020",
  "csd": "Saint-Basile-le-Grand, Ville (V)",
  "pop": 17053.0,
  "density": 475.8,
  "land_km2": 35.8423,
  "lat": 45.52392,
  "lon": -73.27558,
  "coord_src": "csd centroid"
 },
 {
  "name": "McMasterville",
  "prov": "QC",
  "code": "2457025",
  "csd": "McMasterville, Municipalité (MÉ)",
  "pop": 5936.0,
  "density": 1904.0,
  "land_km2": 3.1176,
  "lat": 45.54718,
  "lon": -73.23305,
  "coord_src": "csd centroid"
 },
 {
  "name": "Otterburn Park",
  "prov": "QC",
  "code": "2457030",
  "csd": "Otterburn Park, Ville (V)",
  "pop": 8479.0,
  "density": 1578.2,
  "land_km2": 5.3726,
  "lat": 45.53869,
  "lon": -73.20888,
  "coord_src": "csd centroid"
 },
 {
  "name": "Mont-Saint-Hilaire",
  "prov": "QC",
  "code": "2457035",
  "csd": "Mont-Saint-Hilaire, Ville (V)",
  "pop": 18859.0,
  "density": 427.8,
  "land_km2": 44.0831,
  "lat": 45.56518,
  "lon": -73.16901,
  "coord_src": "csd centroid"
 },
 {
  "name": "Beloeil",
  "prov": "QC",
  "code": "2457040",
  "csd": "Beloeil, Ville (V)",
  "pop": 24104.0,
  "density": 988.8,
  "land_km2": 24.3772,
  "lat": 45.58167,
  "lon": -73.21626,
  "coord_src": "csd centroid"
 },
 {
  "name": "Brossard",
  "prov": "QC",
  "code": "2458007",
  "csd": "Brossard, Ville (V)",
  "pop": 91525.0,
  "density": 2025.3,
  "land_km2": 45.1915,
  "lat": 45.44565,
  "lon": -73.44527,
  "coord_src": "csd centroid"
 },
 {
  "name": "Saint-Lambert",
  "prov": "QC",
  "code": "2458012",
  "csd": "Saint-Lambert, Ville (V)",
  "pop": 22761.0,
  "density": 3009.8,
  "land_km2": 7.5623,
  "lat": 45.49554,
  "lon": -73.50363,
  "coord_src": "csd centroid"
 },
 {
  "name": "Boucherville",
  "prov": "QC",
  "code": "2458033",
  "csd": "Boucherville, Ville (V)",
  "pop": 41743.0,
  "density": 587.8,
  "land_km2": 71.0215,
  "lat": 45.6050197,
  "lon": -73.4526144,
  "coord_src": "nominatim",
  "osm": "Boucherville, Agglomération de Longueuil, Montérégie, Québec, Canada"
 },
 {
  "name": "Saint-Bruno-de-Montarville",
  "prov": "QC",
  "code": "2458037",
  "csd": "Saint-Bruno-de-Montarville, Ville (V)",
  "pop": 26273.0,
  "density": 613.2,
  "land_km2": 42.848,
  "lat": 45.53137,
  "lon": -73.34336,
  "coord_src": "csd centroid"
 },
 {
  "name": "Longueuil",
  "prov": "QC",
  "code": "2458227",
  "csd": "Longueuil, Ville (V)",
  "pop": 254483.0,
  "density": 2198.2,
  "land_km2": 115.7677,
  "lat": 45.521906,
  "lon": -73.4644578,
  "coord_src": "nominatim",
  "osm": "Longueuil, Agglomération de Longueuil, Montérégie, Québec, Canada"
 },
 {
  "name": "Sainte-Julie",
  "prov": "QC",
  "code": "2459010",
  "csd": "Sainte-Julie, Ville (V)",
  "pop": 30045.0,
  "density": 619.6,
  "land_km2": 48.4919,
  "lat": 45.60033,
  "lon": -73.32914,
  "coord_src": "csd centroid"
 },
 {
  "name": "Saint-Amable",
  "prov": "QC",
  "code": "2459015",
  "csd": "Saint-Amable, Ville (V)",
  "pop": 13322.0,
  "density": 362.3,
  "land_km2": 36.7712,
  "lat": 45.65863,
  "lon": -73.29957,
  "coord_src": "csd centroid"
 },
 {
  "name": "Varennes",
  "prov": "QC",
  "code": "2459020",
  "csd": "Varennes, Ville (V)",
  "pop": 21198.0,
  "density": 223.6,
  "land_km2": 94.7985,
  "lat": 45.6834691,
  "lon": -73.4362737,
  "coord_src": "nominatim",
  "osm": "Varennes, Marguerite-D'Youville, Montérégie, Québec, Canada"
 },
 {
  "name": "Contrecoeur",
  "prov": "QC",
  "code": "2459035",
  "csd": "Contrecoeur, Ville (V)",
  "pop": 9480.0,
  "density": 152.4,
  "land_km2": 62.1981,
  "lat": 45.8573781,
  "lon": -73.2374307,
  "coord_src": "nominatim",
  "osm": "Contrecœur, Marguerite-D'Youville, Montérégie, Québec, J0L 1C0, Canada"
 },
 {
  "name": "Charlemagne",
  "prov": "QC",
  "code": "2460005",
  "csd": "Charlemagne, Ville (V)",
  "pop": 6302.0,
  "density": 2906.2,
  "land_km2": 2.1685,
  "lat": 45.72574,
  "lon": -73.49081,
  "coord_src": "csd centroid"
 },
 {
  "name": "Repentigny",
  "prov": "QC",
  "code": "2460013",
  "csd": "Repentigny, Ville (V)",
  "pop": 86100.0,
  "density": 1399.6,
  "land_km2": 61.517,
  "lat": 45.7326055,
  "lon": -73.4528307,
  "coord_src": "nominatim",
  "osm": "Repentigny, L'Assomption (MRC), Lanaudière, Québec, Canada"
 },
 {
  "name": "L'Assomption",
  "prov": "QC",
  "code": "2460028",
  "csd": "L'Assomption, Ville (V)",
  "pop": 23442.0,
  "density": 237.4,
  "land_km2": 98.7365,
  "lat": 45.8307051,
  "lon": -73.4222086,
  "coord_src": "nominatim",
  "osm": "L'Assomption, L'Assomption (MRC), Lanaudière, Québec, Canada"
 },
 {
  "name": "L'Épiphanie",
  "prov": "QC",
  "code": "2460037",
  "csd": "L'Épiphanie, Ville (V)",
  "pop": 8883.0,
  "density": 157.0,
  "land_km2": 56.5656,
  "lat": 45.84825,
  "lon": -73.50607,
  "coord_src": "csd centroid"
 },
 {
  "name": "Saint-Paul",
  "prov": "QC",
  "code": "2461005",
  "csd": "Saint-Paul, Municipalité (MÉ)",
  "pop": 6566.0,
  "density": 133.7,
  "land_km2": 49.1138,
  "lat": 45.95811,
  "lon": -73.4154,
  "coord_src": "csd centroid"
 },
 {
  "name": "Crabtree",
  "prov": "QC",
  "code": "2461013",
  "csd": "Crabtree, Municipalité (MÉ)",
  "pop": 4155.0,
  "density": 165.8,
  "land_km2": 25.0615,
  "lat": 45.97489,
  "lon": -73.48863,
  "coord_src": "csd centroid"
 },
 {
  "name": "Joliette",
  "prov": "QC",
  "code": "2461025",
  "csd": "Joliette, Ville (V)",
  "pop": 21384.0,
  "density": 931.2,
  "land_km2": 22.9646,
  "lat": 46.01271,
  "lon": -73.42449,
  "coord_src": "csd centroid"
 },
 {
  "name": "Notre-Dame-des-Prairies",
  "prov": "QC",
  "code": "2461030",
  "csd": "Notre-Dame-des-Prairies, Ville (V)",
  "pop": 9471.0,
  "density": 523.2,
  "land_km2": 18.103,
  "lat": 46.05425,
  "lon": -73.42555,
  "coord_src": "csd centroid"
 },
 {
  "name": "Saint-Charles-Borromée",
  "prov": "QC",
  "code": "2461035",
  "csd": "Saint-Charles-Borromée, Ville (V)",
  "pop": 15285.0,
  "density": 827.0,
  "land_km2": 18.4831,
  "lat": 46.04629,
  "lon": -73.48129,
  "coord_src": "csd centroid"
 },
 {
  "name": "Saint-Lin--Laurentides",
  "prov": "QC",
  "code": "2463048",
  "csd": "Saint-Lin--Laurentides, Ville (V)",
  "pop": 24030.0,
  "density": 203.2,
  "land_km2": 118.2861,
  "lat": 45.8524052,
  "lon": -73.7586793,
  "coord_src": "nominatim",
  "osm": "Saint-Lin–Laurentides, Montcalm, Lanaudière, Québec, Canada"
 },
 {
  "name": "Sainte-Julienne",
  "prov": "QC",
  "code": "2463060",
  "csd": "Sainte-Julienne, Municipalité (MÉ)",
  "pop": 11173.0,
  "density": 112.4,
  "land_km2": 99.4201,
  "lat": 45.9624229,
  "lon": -73.710013,
  "coord_src": "nominatim",
  "osm": "Sainte-Julienne, Montcalm, Lanaudière, Québec, J0K 2T0, Canada"
 },
 {
  "name": "Terrebonne",
  "prov": "QC",
  "code": "2464008",
  "csd": "Terrebonne, Ville (V)",
  "pop": 119944.0,
  "density": 780.1,
  "land_km2": 153.7581,
  "lat": 45.6951527,
  "lon": -73.6350148,
  "coord_src": "nominatim",
  "osm": "Terrebonne, Les Moulins, Lanaudière, Québec, Canada"
 },
 {
  "name": "Mascouche",
  "prov": "QC",
  "code": "2464015",
  "csd": "Mascouche, Ville (V)",
  "pop": 51183.0,
  "density": 478.8,
  "land_km2": 106.8932,
  "lat": 45.7453521,
  "lon": -73.6005591,
  "coord_src": "nominatim",
  "osm": "Mascouche, Les Moulins, Lanaudière, Québec, Canada"
 },
 {
  "name": "Laval",
  "prov": "QC",
  "code": "2465005",
  "csd": "Laval, Ville (V)",
  "pop": 438366.0,
  "density": 1781.0,
  "land_km2": 246.1349,
  "lat": 45.605589,
  "lon": -73.7345601,
  "coord_src": "nominatim",
  "osm": "Laval (région administrative), Québec, Canada"
 },
 {
  "name": "Montréal-Est",
  "prov": "QC",
  "code": "2466007",
  "csd": "Montréal-Est, Ville (V)",
  "pop": 4394.0,
  "density": 361.6,
  "land_km2": 12.1514,
  "lat": 45.62931,
  "lon": -73.5285,
  "coord_src": "csd centroid"
 },
 {
  "name": "Montréal",
  "prov": "QC",
  "code": "2466023",
  "csd": "Montréal, Ville (V)",
  "pop": 1762949.0,
  "density": 4833.5,
  "land_km2": 364.7362,
  "lat": 45.5031824,
  "lon": -73.5698065,
  "coord_src": "audited",
  "osm": "Montréal, Agglomération de Montréal, Montréal (région administrative), Québec, Canada",
  "alias": "Montreal"
 },
 {
  "name": "Westmount",
  "prov": "QC",
  "code": "2466032",
  "csd": "Westmount, Ville (V)",
  "pop": 19658.0,
  "density": 4860.9,
  "land_km2": 4.0441,
  "lat": 45.48531,
  "lon": -73.60066,
  "coord_src": "csd centroid"
 },
 {
  "name": "Montréal-Ouest",
  "prov": "QC",
  "code": "2466047",
  "csd": "Montréal-Ouest, Ville (V)",
  "pop": 5115.0,
  "density": 3737.9,
  "land_km2": 1.3684,
  "lat": 45.45292,
  "lon": -73.64943,
  "coord_src": "csd centroid"
 },
 {
  "name": "Côte-Saint-Luc",
  "prov": "QC",
  "code": "2466058",
  "csd": "Côte-Saint-Luc, Ville (V)",
  "pop": 34504.0,
  "density": 4903.7,
  "land_km2": 7.0363,
  "lat": 45.46802,
  "lon": -73.66812,
  "coord_src": "csd centroid"
 },
 {
  "name": "Hampstead",
  "prov": "QC",
  "code": "2466062",
  "csd": "Hampstead, Ville (V)",
  "pop": 7037.0,
  "density": 3922.1,
  "land_km2": 1.7942,
  "lat": 45.48089,
  "lon": -73.64547,
  "coord_src": "csd centroid"
 },
 {
  "name": "Mont-Royal",
  "prov": "QC",
  "code": "2466072",
  "csd": "Mont-Royal, Ville (V)",
  "pop": 20953.0,
  "density": 2776.7,
  "land_km2": 7.5459,
  "lat": 45.50997,
  "lon": -73.65158,
  "coord_src": "csd centroid"
 },
 {
  "name": "Dorval",
  "prov": "QC",
  "code": "2466087",
  "csd": "Dorval, Ville (V)",
  "pop": 19302.0,
  "density": 923.0,
  "land_km2": 20.9131,
  "lat": 45.46024,
  "lon": -73.75267,
  "coord_src": "csd centroid"
 },
 {
  "name": "Pointe-Claire",
  "prov": "QC",
  "code": "2466097",
  "csd": "Pointe-Claire, Ville (V)",
  "pop": 33488.0,
  "density": 1770.9,
  "land_km2": 18.91,
  "lat": 45.4562,
  "lon": -73.81196,
  "coord_src": "csd centroid"
 },
 {
  "name": "Kirkland",
  "prov": "QC",
  "code": "2466102",
  "csd": "Kirkland, Ville (V)",
  "pop": 19413.0,
  "density": 2012.0,
  "land_km2": 9.6485,
  "lat": 45.45008,
  "lon": -73.86717,
  "coord_src": "csd centroid"
 },
 {
  "name": "Beaconsfield",
  "prov": "QC",
  "code": "2466107",
  "csd": "Beaconsfield, Ville (V)",
  "pop": 19277.0,
  "density": 1747.5,
  "land_km2": 11.0309,
  "lat": 45.43088,
  "lon": -73.86836,
  "coord_src": "csd centroid"
 },
 {
  "name": "Baie-D'Urfé",
  "prov": "QC",
  "code": "2466112",
  "csd": "Baie-D'Urfé, Ville (V)",
  "pop": 3764.0,
  "density": 623.9,
  "land_km2": 6.0333,
  "lat": 45.41775,
  "lon": -73.91447,
  "coord_src": "csd centroid"
 },
 {
  "name": "Sainte-Anne-de-Bellevue",
  "prov": "QC",
  "code": "2466117",
  "csd": "Sainte-Anne-de-Bellevue, Ville (V)",
  "pop": 5027.0,
  "density": 480.8,
  "land_km2": 10.4558,
  "lat": 45.42621,
  "lon": -73.93278,
  "coord_src": "csd centroid"
 },
 {
  "name": "Dollard-Des Ormeaux",
  "prov": "QC",
  "code": "2466142",
  "csd": "Dollard-Des Ormeaux, Ville (V)",
  "pop": 48403.0,
  "density": 3230.2,
  "land_km2": 14.9843,
  "lat": 45.48702,
  "lon": -73.81729,
  "coord_src": "csd centroid"
 },
 {
  "name": "Saint-Philippe",
  "prov": "QC",
  "code": "2467010",
  "csd": "Saint-Philippe, Ville (V)",
  "pop": 7597.0,
  "density": 122.6,
  "land_km2": 61.9572,
  "lat": 45.3583776,
  "lon": -73.4783036,
  "coord_src": "nominatim",
  "osm": "Saint-Philippe, Roussillon, Montérégie, Québec, J0L 2K0, Canada"
 },
 {
  "name": "La Prairie",
  "prov": "QC",
  "code": "2467015",
  "csd": "La Prairie, Ville (V)",
  "pop": 26406.0,
  "density": 607.4,
  "land_km2": 43.4704,
  "lat": 45.39844,
  "lon": -73.44196,
  "coord_src": "csd centroid"
 },
 {
  "name": "Candiac",
  "prov": "QC",
  "code": "2467020",
  "csd": "Candiac, Ville (V)",
  "pop": 22997.0,
  "density": 1331.3,
  "land_km2": 17.2739,
  "lat": 45.37532,
  "lon": -73.51173,
  "coord_src": "csd centroid"
 },
 {
  "name": "Delson",
  "prov": "QC",
  "code": "2467025",
  "csd": "Delson, Ville (V)",
  "pop": 8328.0,
  "density": 1089.6,
  "land_km2": 7.6433,
  "lat": 45.37415,
  "lon": -73.53971,
  "coord_src": "csd centroid"
 },
 {
  "name": "Sainte-Catherine",
  "prov": "QC",
  "code": "2467030",
  "csd": "Sainte-Catherine, Ville (V)",
  "pop": 17347.0,
  "density": 1851.4,
  "land_km2": 9.3696,
  "lat": 45.39678,
  "lon": -73.57624,
  "coord_src": "csd centroid"
 },
 {
  "name": "Saint-Constant",
  "prov": "QC",
  "code": "2467035",
  "csd": "Saint-Constant, Ville (V)",
  "pop": 29954.0,
  "density": 524.9,
  "land_km2": 57.0617,
  "lat": 45.34896,
  "lon": -73.59091,
  "coord_src": "csd centroid"
 },
 {
  "name": "Mercier",
  "prov": "QC",
  "code": "2467045",
  "csd": "Mercier, Ville (V)",
  "pop": 14626.0,
  "density": 318.2,
  "land_km2": 45.9629,
  "lat": 45.30793,
  "lon": -73.74189,
  "coord_src": "csd centroid"
 },
 {
  "name": "Châteauguay",
  "prov": "QC",
  "code": "2467050",
  "csd": "Châteauguay, Ville (V)",
  "pop": 50815.0,
  "density": 1481.2,
  "land_km2": 34.3061,
  "lat": 45.35581,
  "lon": -73.74799,
  "coord_src": "csd centroid"
 },
 {
  "name": "Léry",
  "prov": "QC",
  "code": "2467055",
  "csd": "Léry, Ville (V)",
  "pop": 2390.0,
  "density": 230.7,
  "land_km2": 10.3619,
  "lat": 45.34252,
  "lon": -73.79768,
  "coord_src": "csd centroid"
 },
 {
  "name": "Napierville",
  "prov": "QC",
  "code": "2468030",
  "csd": "Napierville, Municipalité (MÉ)",
  "pop": 4020.0,
  "density": 893.3,
  "land_km2": 4.5001,
  "lat": 45.18843,
  "lon": -73.40303,
  "coord_src": "csd centroid"
 },
 {
  "name": "Saint-Rémi",
  "prov": "QC",
  "code": "2468055",
  "csd": "Saint-Rémi, Ville (V)",
  "pop": 8957.0,
  "density": 114.6,
  "land_km2": 78.1759,
  "lat": 45.2591064,
  "lon": -73.6188315,
  "coord_src": "nominatim",
  "osm": "Saint-Rémi, Les Jardins-de-Napierville, Montérégie, Québec, J0L 2L0, Canada"
 },
 {
  "name": "Huntingdon",
  "prov": "QC",
  "code": "2469055",
  "csd": "Huntingdon, Ville (V)",
  "pop": 2556.0,
  "density": 924.2,
  "land_km2": 2.7657,
  "lat": 45.08803,
  "lon": -74.17843,
  "coord_src": "csd centroid"
 },
 {
  "name": "Beauharnois",
  "prov": "QC",
  "code": "2470022",
  "csd": "Beauharnois, Ville (V)",
  "pop": 13638.0,
  "density": 199.9,
  "land_km2": 68.2196,
  "lat": 45.3139778,
  "lon": -73.875834,
  "coord_src": "nominatim",
  "osm": "Beauharnois, Beauharnois-Salaberry, Montérégie, Québec, Canada"
 },
 {
  "name": "Salaberry-de-Valleyfield",
  "prov": "QC",
  "code": "2470052",
  "csd": "Salaberry-de-Valleyfield, Ville (V)",
  "pop": 42787.0,
  "density": 394.1,
  "land_km2": 108.5597,
  "lat": 45.2555575,
  "lon": -74.1316718,
  "coord_src": "nominatim",
  "osm": "Salaberry-de-Valleyfield, Beauharnois-Salaberry, Montérégie, Québec, Canada"
 },
 {
  "name": "Rivière-Beaudette",
  "prov": "QC",
  "code": "2471005",
  "csd": "Rivière-Beaudette, Municipalité (MÉ)",
  "pop": 2489.0,
  "density": 134.7,
  "land_km2": 18.4812,
  "lat": 45.22502,
  "lon": -74.33499,
  "coord_src": "csd centroid"
 },
 {
  "name": "Saint-Zotique",
  "prov": "QC",
  "code": "2471025",
  "csd": "Saint-Zotique, Municipalité (MÉ)",
  "pop": 9618.0,
  "density": 384.0,
  "land_km2": 25.0446,
  "lat": 45.24745,
  "lon": -74.27861,
  "coord_src": "csd centroid"
 },
 {
  "name": "Les Coteaux",
  "prov": "QC",
  "code": "2471033",
  "csd": "Les Coteaux, Municipalité (MÉ)",
  "pop": 5643.0,
  "density": 485.0,
  "land_km2": 11.636,
  "lat": 45.27181,
  "lon": -74.23745,
  "coord_src": "csd centroid"
 },
 {
  "name": "Coteau-du-Lac",
  "prov": "QC",
  "code": "2471040",
  "csd": "Coteau-du-Lac, Ville (V)",
  "pop": 7473.0,
  "density": 159.4,
  "land_km2": 46.8741,
  "lat": 45.30807,
  "lon": -74.19295,
  "coord_src": "csd centroid"
 },
 {
  "name": "Pointe-des-Cascades",
  "prov": "QC",
  "code": "2471055",
  "csd": "Pointe-des-Cascades, Village (VL)",
  "pop": 1775.0,
  "density": 646.8,
  "land_km2": 2.7441,
  "lat": 45.33062,
  "lon": -73.97266,
  "coord_src": "csd centroid"
 },
 {
  "name": "L'Île-Perrot",
  "prov": "QC",
  "code": "2471060",
  "csd": "L'Île-Perrot, Ville (V)",
  "pop": 11638.0,
  "density": 2130.1,
  "land_km2": 5.4637,
  "lat": 45.3901,
  "lon": -73.9581,
  "coord_src": "csd centroid"
 },
 {
  "name": "Notre-Dame-de-l'Île-Perrot",
  "prov": "QC",
  "code": "2471065",
  "csd": "Notre-Dame-de-l'Île-Perrot, Ville (V)",
  "pop": 11427.0,
  "density": 407.3,
  "land_km2": 28.0579,
  "lat": 45.36954,
  "lon": -73.92099,
  "coord_src": "csd centroid"
 },
 {
  "name": "Pincourt",
  "prov": "QC",
  "code": "2471070",
  "csd": "Pincourt, Ville (V)",
  "pop": 14751.0,
  "density": 2078.0,
  "land_km2": 7.0985,
  "lat": 45.3741,
  "lon": -73.98209,
  "coord_src": "csd centroid"
 },
 {
  "name": "Terrasse-Vaudreuil",
  "prov": "QC",
  "code": "2471075",
  "csd": "Terrasse-Vaudreuil, Municipalité (MÉ)",
  "pop": 1887.0,
  "density": 1782.4,
  "land_km2": 1.0587,
  "lat": 45.39094,
  "lon": -73.98747,
  "coord_src": "csd centroid"
 },
 {
  "name": "Vaudreuil-Dorion",
  "prov": "QC",
  "code": "2471083",
  "csd": "Vaudreuil-Dorion, Ville (V)",
  "pop": 43268.0,
  "density": 595.5,
  "land_km2": 72.654,
  "lat": 45.3971509,
  "lon": -74.0254577,
  "coord_src": "nominatim",
  "osm": "Vaudreuil-Dorion, Vaudreuil-Soulanges, Montérégie, Québec, Canada"
 },
 {
  "name": "Vaudreuil-sur-le-Lac",
  "prov": "QC",
  "code": "2471090",
  "csd": "Vaudreuil-sur-le-Lac, Village (VL)",
  "pop": 1361.0,
  "density": 983.0,
  "land_km2": 1.3845,
  "lat": 45.42026,
  "lon": -74.03382,
  "coord_src": "csd centroid"
 },
 {
  "name": "Hudson",
  "prov": "QC",
  "code": "2471100",
  "csd": "Hudson, Ville (V)",
  "pop": 5411.0,
  "density": 248.4,
  "land_km2": 21.7864,
  "lat": 45.45611,
  "lon": -74.15507,
  "coord_src": "csd centroid"
 },
 {
  "name": "Saint-Lazare",
  "prov": "QC",
  "code": "2471105",
  "csd": "Saint-Lazare, Ville (V)",
  "pop": 22354.0,
  "density": 334.3,
  "land_km2": 66.8615,
  "lat": 45.3995886,
  "lon": -74.1359632,
  "coord_src": "nominatim",
  "osm": "Saint-Lazare, Vaudreuil-Soulanges, Montérégie, Québec, Canada"
 },
 {
  "name": "Saint-Eustache",
  "prov": "QC",
  "code": "2472005",
  "csd": "Saint-Eustache, Ville (V)",
  "pop": 45276.0,
  "density": 642.1,
  "land_km2": 70.514,
  "lat": 45.5646052,
  "lon": -73.8929714,
  "coord_src": "nominatim",
  "osm": "Saint-Eustache, Deux-Montagnes (MRC), Laurentides, Québec, Canada"
 },
 {
  "name": "Deux-Montagnes",
  "prov": "QC",
  "code": "2472010",
  "csd": "Deux-Montagnes, Ville (V)",
  "pop": 17915.0,
  "density": 2947.8,
  "land_km2": 6.0774,
  "lat": 45.5428,
  "lon": -73.90397,
  "coord_src": "csd centroid"
 },
 {
  "name": "Sainte-Marthe-sur-le-Lac",
  "prov": "QC",
  "code": "2472015",
  "csd": "Sainte-Marthe-sur-le-Lac, Ville (V)",
  "pop": 19797.0,
  "density": 2267.4,
  "land_km2": 8.7312,
  "lat": 45.5314,
  "lon": -73.94171,
  "coord_src": "csd centroid"
 },
 {
  "name": "Pointe-Calumet",
  "prov": "QC",
  "code": "2472020",
  "csd": "Pointe-Calumet, Municipalité (MÉ)",
  "pop": 6281.0,
  "density": 1367.7,
  "land_km2": 4.5923,
  "lat": 45.50016,
  "lon": -73.97279,
  "coord_src": "csd centroid"
 },
 {
  "name": "Saint-Joseph-du-Lac",
  "prov": "QC",
  "code": "2472025",
  "csd": "Saint-Joseph-du-Lac, Municipalité (MÉ)",
  "pop": 7031.0,
  "density": 170.6,
  "land_km2": 41.2187,
  "lat": 45.53234,
  "lon": -74.01663,
  "coord_src": "csd centroid"
 },
 {
  "name": "Boisbriand",
  "prov": "QC",
  "code": "2473005",
  "csd": "Boisbriand, Ville (V)",
  "pop": 28308.0,
  "density": 1022.9,
  "land_km2": 27.6736,
  "lat": 45.61815,
  "lon": -73.8624,
  "coord_src": "csd centroid"
 },
 {
  "name": "Sainte-Thérèse",
  "prov": "QC",
  "code": "2473010",
  "csd": "Sainte-Thérèse, Ville (V)",
  "pop": 26533.0,
  "density": 2798.9,
  "land_km2": 9.4799,
  "lat": 45.64465,
  "lon": -73.84387,
  "coord_src": "csd centroid"
 },
 {
  "name": "Blainville",
  "prov": "QC",
  "code": "2473015",
  "csd": "Blainville, Ville (V)",
  "pop": 59819.0,
  "density": 1088.2,
  "land_km2": 54.9693,
  "lat": 45.68419,
  "lon": -73.85418,
  "coord_src": "csd centroid"
 },
 {
  "name": "Rosemère",
  "prov": "QC",
  "code": "2473020",
  "csd": "Rosemère, Ville (V)",
  "pop": 14090.0,
  "density": 1318.7,
  "land_km2": 10.6844,
  "lat": 45.63969,
  "lon": -73.79811,
  "coord_src": "csd centroid"
 },
 {
  "name": "Lorraine",
  "prov": "QC",
  "code": "2473025",
  "csd": "Lorraine, Ville (V)",
  "pop": 9502.0,
  "density": 1609.9,
  "land_km2": 5.9024,
  "lat": 45.66846,
  "lon": -73.7841,
  "coord_src": "csd centroid"
 },
 {
  "name": "Bois-des-Filion",
  "prov": "QC",
  "code": "2473030",
  "csd": "Bois-des-Filion, Ville (V)",
  "pop": 10159.0,
  "density": 2327.8,
  "land_km2": 4.3643,
  "lat": 45.67251,
  "lon": -73.7635,
  "coord_src": "csd centroid"
 },
 {
  "name": "Sainte-Anne-des-Plaines",
  "prov": "QC",
  "code": "2473035",
  "csd": "Sainte-Anne-des-Plaines, Ville (V)",
  "pop": 15221.0,
  "density": 162.9,
  "land_km2": 93.4449,
  "lat": 45.76417,
  "lon": -73.818855,
  "coord_src": "nominatim",
  "osm": "Sainte-Anne-des-Plaines, Thérèse-De Blainville, Laurentides, Québec, Canada"
 },
 {
  "name": "Mirabel",
  "prov": "QC",
  "code": "2474005",
  "csd": "Mirabel, Ville (V)",
  "pop": 61108.0,
  "density": 126.2,
  "land_km2": 484.0947,
  "lat": 45.6323151,
  "lon": -73.9838454,
  "coord_src": "nominatim",
  "osm": "Mirabel, Laurentides, Québec, Canada"
 },
 {
  "name": "Saint-Colomban",
  "prov": "QC",
  "code": "2475005",
  "csd": "Saint-Colomban, Ville (V)",
  "pop": 17740.0,
  "density": 191.4,
  "land_km2": 92.705,
  "lat": 45.7398754,
  "lon": -74.1378332,
  "coord_src": "nominatim",
  "osm": "Saint-Colomban, La Rivière-du-Nord, Laurentides, Québec, Canada"
 },
 {
  "name": "Saint-Jérôme",
  "prov": "QC",
  "code": "2475017",
  "csd": "Saint-Jérôme, Ville (V)",
  "pop": 80213.0,
  "density": 889.5,
  "land_km2": 90.18,
  "lat": 45.7780402,
  "lon": -74.0033272,
  "coord_src": "nominatim",
  "osm": "Saint-Jérôme, La Rivière-du-Nord, Laurentides, Québec, Canada"
 },
 {
  "name": "Sainte-Sophie",
  "prov": "QC",
  "code": "2475028",
  "csd": "Sainte-Sophie, Municipalité (MÉ)",
  "pop": 18080.0,
  "density": 162.6,
  "land_km2": 111.2001,
  "lat": 45.818718,
  "lon": -73.8991887,
  "coord_src": "nominatim",
  "osm": "Sainte-Sophie, La Rivière-du-Nord, Laurentides, Québec, Canada"
 },
 {
  "name": "Prévost",
  "prov": "QC",
  "code": "2475040",
  "csd": "Prévost, Ville (V)",
  "pop": 13692.0,
  "density": 399.3,
  "land_km2": 34.291,
  "lat": 45.8627,
  "lon": -74.05926,
  "coord_src": "csd centroid"
 },
 {
  "name": "Lachute",
  "prov": "QC",
  "code": "2476020",
  "csd": "Lachute, Ville (V)",
  "pop": 14100.0,
  "density": 129.8,
  "land_km2": 108.6579,
  "lat": 45.6560478,
  "lon": -74.3401388,
  "coord_src": "nominatim",
  "osm": "Lachute, Argenteuil, Laurentides, Québec, Canada"
 },
 {
  "name": "Grenville",
  "prov": "QC",
  "code": "2476055",
  "csd": "Grenville, Village (VL)",
  "pop": 1816.0,
  "density": 644.6,
  "land_km2": 2.8172,
  "lat": 45.62759,
  "lon": -74.59921,
  "coord_src": "csd centroid"
 },
 {
  "name": "Sainte-Adèle",
  "prov": "QC",
  "code": "2477022",
  "csd": "Sainte-Adèle, Ville (V)",
  "pop": 14010.0,
  "density": 117.1,
  "land_km2": 119.6712,
  "lat": 45.951895,
  "lon": -74.1359579,
  "coord_src": "nominatim",
  "osm": "Sainte-Adèle, Les Pays-d'en-Haut, Laurentides, Québec, Canada"
 },
 {
  "name": "Piedmont",
  "prov": "QC",
  "code": "2477030",
  "csd": "Piedmont, Municipalité (MÉ)",
  "pop": 3476.0,
  "density": 142.7,
  "land_km2": 24.3614,
  "lat": 45.90273,
  "lon": -74.11273,
  "coord_src": "csd centroid"
 },
 {
  "name": "Sainte-Anne-des-Lacs",
  "prov": "QC",
  "code": "2477035",
  "csd": "Sainte-Anne-des-Lacs, Paroisse (municipalité de) (PE)",
  "pop": 3862.0,
  "density": 156.7,
  "land_km2": 24.6456,
  "lat": 45.84811,
  "lon": -74.13242,
  "coord_src": "csd centroid"
 },
 {
  "name": "Saint-Sauveur",
  "prov": "QC",
  "code": "2477043",
  "csd": "Saint-Sauveur, Ville (V)",
  "pop": 11580.0,
  "density": 243.2,
  "land_km2": 47.6174,
  "lat": 45.894309,
  "lon": -74.158058,
  "coord_src": "audited"
 },
 {
  "name": "Val-David",
  "prov": "QC",
  "code": "2478010",
  "csd": "Val-David, Village (VL)",
  "pop": 5558.0,
  "density": 130.3,
  "land_km2": 42.6648,
  "lat": 46.03311,
  "lon": -74.21247,
  "coord_src": "csd centroid"
 },
 {
  "name": "Mont-Tremblant",
  "prov": "QC",
  "code": "2478102",
  "csd": "Mont-Tremblant, Ville (V)",
  "pop": 10992.0,
  "density": 47.0,
  "land_km2": 233.7483,
  "lat": 46.11588,
  "lon": -74.5891426,
  "coord_src": "audited"
 },
 {
  "name": "Thurso",
  "prov": "QC",
  "code": "2480050",
  "csd": "Thurso, Ville (V)",
  "pop": 3084.0,
  "density": 463.8,
  "land_km2": 6.65,
  "lat": 45.60139,
  "lon": -75.24219,
  "coord_src": "csd centroid"
 },
 {
  "name": "Gatineau",
  "prov": "QC",
  "code": "2481017",
  "csd": "Gatineau, Ville (V)",
  "pop": 291041.0,
  "density": 851.4,
  "land_km2": 341.8414,
  "lat": 45.4277659,
  "lon": -75.710976,
  "coord_src": "audited"
 },
 {
  "name": "Maniwaki",
  "prov": "QC",
  "code": "2483065",
  "csd": "Maniwaki, Ville (V)",
  "pop": 3757.0,
  "density": 662.8,
  "land_km2": 5.6683,
  "lat": 46.38111,
  "lon": -75.97785,
  "coord_src": "csd centroid"
 },
 {
  "name": "Shawville",
  "prov": "QC",
  "code": "2484010",
  "csd": "Shawville, Municipalité (MÉ)",
  "pop": 1668.0,
  "density": 310.1,
  "land_km2": 5.3781,
  "lat": 45.60881,
  "lon": -76.49557,
  "coord_src": "csd centroid"
 },
 {
  "name": "Fort-Coulonge",
  "prov": "QC",
  "code": "2484060",
  "csd": "Fort-Coulonge, Village (VL)",
  "pop": 1312.0,
  "density": 443.9,
  "land_km2": 2.9558,
  "lat": 45.84005,
  "lon": -76.73704,
  "coord_src": "csd centroid"
 },
 {
  "name": "Ville-Marie",
  "prov": "QC",
  "code": "2485025",
  "csd": "Ville-Marie, Ville (V)",
  "pop": 2464.0,
  "density": 422.4,
  "land_km2": 5.8332,
  "lat": 47.32998,
  "lon": -79.45735,
  "coord_src": "csd centroid"
 },
 {
  "name": "Rouyn-Noranda",
  "prov": "QC",
  "code": "2486042",
  "csd": "Rouyn-Noranda, Ville (V)",
  "pop": 42313.0,
  "density": 7.1,
  "land_km2": 5963.5671,
  "lat": 48.2420524,
  "lon": -79.0205378,
  "coord_src": "audited"
 },
 {
  "name": "Val-d'Or",
  "prov": "QC",
  "code": "2489008",
  "csd": "Val-d'Or, Ville (V)",
  "pop": 32752.0,
  "density": 9.3,
  "land_km2": 3536.8359,
  "lat": 48.1023356,
  "lon": -77.7875715,
  "coord_src": "audited"
 },
 {
  "name": "Alma",
  "prov": "QC",
  "code": "2493042",
  "csd": "Alma, Ville (V)",
  "pop": 30331.0,
  "density": 155.6,
  "land_km2": 194.9231,
  "lat": 48.548887,
  "lon": -71.651459,
  "coord_src": "nominatim",
  "osm": "Alma, Lac-Saint-Jean-Est, Saguenay–Lac-Saint-Jean, Québec, Canada"
 },
 {
  "name": "Saguenay",
  "prov": "QC",
  "code": "2494068",
  "csd": "Saguenay, Ville (V)",
  "pop": 144723.0,
  "density": 128.7,
  "land_km2": 1124.6324,
  "lat": 48.405959,
  "lon": -71.069183,
  "coord_src": "audited"
 },
 {
  "name": "Chute-aux-Outardes",
  "prov": "QC",
  "code": "2496035",
  "csd": "Chute-aux-Outardes, Village (VL)",
  "pop": 1391.0,
  "density": 185.3,
  "land_km2": 7.5052,
  "lat": 49.12692,
  "lon": -68.40054,
  "coord_src": "csd centroid"
 },
 {
  "name": "Sept-Îles",
  "prov": "QC",
  "code": "2497007",
  "csd": "Sept-Îles, Ville (V)",
  "pop": 24569.0,
  "density": 14.1,
  "land_km2": 1742.883,
  "lat": 50.2109579,
  "lon": -66.3790642,
  "coord_src": "audited",
  "osm": "Sept-Îles, Sept-Rivières, Côte-Nord, Québec, Canada",
  "alias": "Sept-Iles"
 },
 {
  "name": "Salluit",
  "prov": "QC",
  "code": "2499135",
  "csd": "Salluit, Village nordique (VN)",
  "pop": 1580.0,
  "density": 104.8,
  "land_km2": 15.0771,
  "lat": 62.20203,
  "lon": -75.63323,
  "coord_src": "csd centroid"
 },
 {
  "name": "Cornwall",
  "prov": "ON",
  "code": "3501012",
  "csd": "Cornwall, City (CY)",
  "pop": 47845.0,
  "density": 777.9,
  "land_km2": 61.5044,
  "lat": 45.0469989,
  "lon": -74.7333845,
  "coord_src": "audited"
 },
 {
  "name": "Hawkesbury",
  "prov": "ON",
  "code": "3502008",
  "csd": "Hawkesbury, Town (T)",
  "pop": 10194.0,
  "density": 1009.7,
  "land_km2": 10.0965,
  "lat": 45.60886,
  "lon": -74.61059,
  "coord_src": "csd centroid"
 },
 {
  "name": "Casselman",
  "prov": "ON",
  "code": "3502044",
  "csd": "Casselman, Village (VL)",
  "pop": 3960.0,
  "density": 772.2,
  "land_km2": 5.128,
  "lat": 45.31306,
  "lon": -75.09035,
  "coord_src": "csd centroid"
 },
 {
  "name": "Ottawa",
  "prov": "ON",
  "code": "3506008",
  "csd": "Ottawa, City (CV)",
  "pop": 1017449.0,
  "density": 364.9,
  "land_km2": 2788.1967,
  "lat": 45.4208777,
  "lon": -75.6901106,
  "coord_src": "audited"
 },
 {
  "name": "Prescott",
  "prov": "ON",
  "code": "3507008",
  "csd": "Prescott, Town (T)",
  "pop": 4078.0,
  "density": 826.0,
  "land_km2": 4.937,
  "lat": 44.71749,
  "lon": -75.52068,
  "coord_src": "csd centroid"
 },
 {
  "name": "Brockville",
  "prov": "ON",
  "code": "3507015",
  "csd": "Brockville, City (CY)",
  "pop": 22116.0,
  "density": 1057.8,
  "land_km2": 20.9072,
  "lat": 44.6039207,
  "lon": -75.7016829,
  "coord_src": "audited"
 },
 {
  "name": "Gananoque",
  "prov": "ON",
  "code": "3507024",
  "csd": "Gananoque, Town (T)",
  "pop": 5383.0,
  "density": 768.4,
  "land_km2": 7.0051,
  "lat": 44.33381,
  "lon": -76.16632,
  "coord_src": "csd centroid"
 },
 {
  "name": "Smiths Falls",
  "prov": "ON",
  "code": "3509004",
  "csd": "Smiths Falls, Town (T)",
  "pop": 9254.0,
  "density": 958.1,
  "land_km2": 9.659,
  "lat": 44.8955,
  "lon": -76.00889,
  "coord_src": "csd centroid"
 },
 {
  "name": "Perth",
  "prov": "ON",
  "code": "3509021",
  "csd": "Perth, Town (T)",
  "pop": 6469.0,
  "density": 529.8,
  "land_km2": 12.2102,
  "lat": 44.8992423,
  "lon": -76.2487294,
  "coord_src": "audited"
 },
 {
  "name": "Carleton Place",
  "prov": "ON",
  "code": "3509028",
  "csd": "Carleton Place, Town (T)",
  "pop": 12517.0,
  "density": 1259.4,
  "land_km2": 9.9385,
  "lat": 45.13783,
  "lon": -76.13694,
  "coord_src": "csd centroid"
 },
 {
  "name": "Mississippi Mills",
  "prov": "ON",
  "code": "3509030",
  "csd": "Mississippi Mills, Town (T)",
  "pop": 14740.0,
  "density": 28.8,
  "land_km2": 511.2485,
  "lat": 45.226049,
  "lon": -76.1945277,
  "coord_src": "audited",
  "osm": "Mississippi Mills, Lanark County, Eastern Ontario, Ontario, Canada",
  "alias": "Almonte"
 },
 {
  "name": "Kingston",
  "prov": "ON",
  "code": "3510010",
  "csd": "Kingston, City (CY)",
  "pop": 132485.0,
  "density": 293.4,
  "land_km2": 451.5833,
  "lat": 44.3054151,
  "lon": -76.4283781,
  "coord_src": "audited"
 },
 {
  "name": "Deseronto",
  "prov": "ON",
  "code": "3512002",
  "csd": "Deseronto, Town (T)",
  "pop": 1747.0,
  "density": 693.5,
  "land_km2": 2.5191,
  "lat": 44.19847,
  "lon": -77.05172,
  "coord_src": "csd centroid"
 },
 {
  "name": "Belleville",
  "prov": "ON",
  "code": "3512005",
  "csd": "Belleville, City (CY)",
  "pop": 55071.0,
  "density": 222.8,
  "land_km2": 247.1474,
  "lat": 44.2436328,
  "lon": -77.3607597,
  "coord_src": "nominatim",
  "osm": "Belleville, Central Ontario, Ontario, Canada"
 },
 {
  "name": "Prince Edward County",
  "prov": "ON",
  "code": "3513020",
  "csd": "Prince Edward County, City (CY)",
  "pop": 25704.0,
  "density": 24.4,
  "land_km2": 1052.6069,
  "lat": 44.0077067,
  "lon": -77.1411741,
  "coord_src": "audited",
  "osm": "Prince Edward County, Central Ontario, Ontario, Canada",
  "alias": "Picton"
 },
 {
  "name": "Port Hope",
  "prov": "ON",
  "code": "3514020",
  "csd": "Port Hope, Municipality (MU)",
  "pop": 17294.0,
  "density": 62.0,
  "land_km2": 278.8006,
  "lat": 43.9515755,
  "lon": -78.2939704,
  "coord_src": "audited"
 },
 {
  "name": "Cobourg",
  "prov": "ON",
  "code": "3514021",
  "csd": "Cobourg, Town (T)",
  "pop": 20519.0,
  "density": 915.7,
  "land_km2": 22.4082,
  "lat": 43.9595998,
  "lon": -78.1677784,
  "coord_src": "audited"
 },
 {
  "name": "Peterborough",
  "prov": "ON",
  "code": "3515014",
  "csd": "Peterborough, City (CY)",
  "pop": 83651.0,
  "density": 1291.8,
  "land_km2": 64.7565,
  "lat": 44.3048009,
  "lon": -78.3199496,
  "coord_src": "audited"
 },
 {
  "name": "Pickering",
  "prov": "ON",
  "code": "3518001",
  "csd": "Pickering, City (CY)",
  "pop": 99186.0,
  "density": 429.2,
  "land_km2": 231.1049,
  "lat": 43.835765,
  "lon": -79.090576,
  "coord_src": "nominatim",
  "osm": "Pickering, Durham Region, Golden Horseshoe, Ontario, Canada"
 },
 {
  "name": "Ajax",
  "prov": "ON",
  "code": "3518005",
  "csd": "Ajax, Town (T)",
  "pop": 126666.0,
  "density": 1900.6,
  "land_km2": 66.6437,
  "lat": 43.8505287,
  "lon": -79.0208814,
  "coord_src": "nominatim",
  "osm": "Ajax, Durham Region, Golden Horseshoe, Ontario, Canada"
 },
 {
  "name": "Whitby",
  "prov": "ON",
  "code": "3518009",
  "csd": "Whitby, Town (T)",
  "pop": 138501.0,
  "density": 944.1,
  "land_km2": 146.6948,
  "lat": 43.87982,
  "lon": -78.9421751,
  "coord_src": "nominatim",
  "osm": "Whitby, Durham Region, Golden Horseshoe, Ontario, Canada"
 },
 {
  "name": "Oshawa",
  "prov": "ON",
  "code": "3518013",
  "csd": "Oshawa, City (CY)",
  "pop": 175383.0,
  "density": 1203.6,
  "land_km2": 145.7163,
  "lat": 43.8975558,
  "lon": -78.8635324,
  "coord_src": "audited"
 },
 {
  "name": "Clarington",
  "prov": "ON",
  "code": "3518017",
  "csd": "Clarington, Municipality (MU)",
  "pop": 101427.0,
  "density": 166.0,
  "land_km2": 610.8417,
  "lat": 43.9686695,
  "lon": -78.6513545,
  "coord_src": "nominatim",
  "osm": "Clarington, Durham Region, Golden Horseshoe, Ontario, Canada"
 },
 {
  "name": "Vaughan",
  "prov": "ON",
  "code": "3519028",
  "csd": "Vaughan, City (CY)",
  "pop": 323103.0,
  "density": 1185.9,
  "land_km2": 272.4441,
  "lat": 43.7941544,
  "lon": -79.5268023,
  "coord_src": "nominatim",
  "osm": "Vaughan, York Region, Golden Horseshoe, Ontario, Canada"
 },
 {
  "name": "Markham",
  "prov": "ON",
  "code": "3519036",
  "csd": "Markham, City (CY)",
  "pop": 338503.0,
  "density": 1604.8,
  "land_km2": 210.9319,
  "lat": 43.8563707,
  "lon": -79.3376825,
  "coord_src": "nominatim",
  "osm": "Markham, York Region, Golden Horseshoe, Ontario, Canada"
 },
 {
  "name": "Richmond Hill",
  "prov": "ON",
  "code": "3519038",
  "csd": "Richmond Hill, Town (T)",
  "pop": 202022.0,
  "density": 2004.4,
  "land_km2": 100.7897,
  "lat": 43.8801166,
  "lon": -79.4392925,
  "coord_src": "nominatim",
  "osm": "Richmond Hill, York Region, Golden Horseshoe, Ontario, Canada"
 },
 {
  "name": "Whitchurch-Stouffville",
  "prov": "ON",
  "code": "3519044",
  "csd": "Whitchurch-Stouffville, Town (T)",
  "pop": 49864.0,
  "density": 241.6,
  "land_km2": 206.4178,
  "lat": 43.9715452,
  "lon": -79.2467398,
  "coord_src": "nominatim",
  "osm": "Whitchurch-Stouffville, York Region, Golden Horseshoe, Ontario, Canada"
 },
 {
  "name": "Aurora",
  "prov": "ON",
  "code": "3519046",
  "csd": "Aurora, Town (T)",
  "pop": 62057.0,
  "density": 1241.1,
  "land_km2": 50.0009,
  "lat": 43.99618,
  "lon": -79.44731,
  "coord_src": "csd centroid"
 },
 {
  "name": "Newmarket",
  "prov": "ON",
  "code": "3519048",
  "csd": "Newmarket, Town (T)",
  "pop": 87942.0,
  "density": 2284.1,
  "land_km2": 38.501,
  "lat": 44.04985,
  "lon": -79.46095,
  "coord_src": "csd centroid"
 },
 {
  "name": "East Gwillimbury",
  "prov": "ON",
  "code": "3519054",
  "csd": "East Gwillimbury, Town (T)",
  "pop": 34637.0,
  "density": 141.4,
  "land_km2": 244.9061,
  "lat": 44.0957511,
  "lon": -79.4897803,
  "coord_src": "nominatim",
  "osm": "East Gwillimbury, York Region, Golden Horseshoe, Ontario, Canada"
 },
 {
  "name": "Georgina",
  "prov": "ON",
  "code": "3519070",
  "csd": "Georgina, Town (T)",
  "pop": 47642.0,
  "density": 165.6,
  "land_km2": 287.69,
  "lat": 44.2280235,
  "lon": -79.4644446,
  "coord_src": "nominatim",
  "osm": "Georgina, York Region, Golden Horseshoe, Ontario, Canada"
 },
 {
  "name": "Toronto",
  "prov": "ON",
  "code": "3520005",
  "csd": "Toronto, City (C)",
  "pop": 2794356.0,
  "density": 4427.8,
  "land_km2": 631.0983,
  "lat": 43.6534817,
  "lon": -79.3839347,
  "coord_src": "audited"
 },
 {
  "name": "Mississauga",
  "prov": "ON",
  "code": "3521005",
  "csd": "Mississauga, City (CY)",
  "pop": 717961.0,
  "density": 2452.5,
  "land_km2": 292.7442,
  "lat": 43.5884727,
  "lon": -79.643658,
  "coord_src": "nominatim",
  "osm": "Mississauga, Peel Region, Golden Horseshoe, Ontario, Canada"
 },
 {
  "name": "Brampton",
  "prov": "ON",
  "code": "3521010",
  "csd": "Brampton, City (CY)",
  "pop": 656480.0,
  "density": 2469.0,
  "land_km2": 265.8874,
  "lat": 43.685832,
  "lon": -79.7599366,
  "coord_src": "nominatim",
  "osm": "Brampton, Peel Region, Golden Horseshoe, Ontario, Canada"
 },
 {
  "name": "Caledon",
  "prov": "ON",
  "code": "3521024",
  "csd": "Caledon, Town (T)",
  "pop": 76581.0,
  "density": 111.2,
  "land_km2": 688.8179,
  "lat": 43.8320698,
  "lon": -79.9066871,
  "coord_src": "nominatim",
  "osm": "Caledon, Peel Region, Golden Horseshoe, Ontario, Canada"
 },
 {
  "name": "Orangeville",
  "prov": "ON",
  "code": "3522014",
  "csd": "Orangeville, Town (T)",
  "pop": 30167.0,
  "density": 1989.5,
  "land_km2": 15.1629,
  "lat": 43.91531,
  "lon": -80.10983,
  "coord_src": "csd centroid"
 },
 {
  "name": "Shelburne",
  "prov": "ON",
  "code": "3522021",
  "csd": "Shelburne, Town (T)",
  "pop": 8994.0,
  "density": 1370.8,
  "land_km2": 6.5613,
  "lat": 44.08092,
  "lon": -80.20106,
  "coord_src": "csd centroid"
 },
 {
  "name": "Guelph",
  "prov": "ON",
  "code": "3523008",
  "csd": "Guelph, City (CY)",
  "pop": 143740.0,
  "density": 1644.1,
  "land_km2": 87.4266,
  "lat": 43.5460516,
  "lon": -80.2493276,
  "coord_src": "audited"
 },
 {
  "name": "Centre Wellington",
  "prov": "ON",
  "code": "3523025",
  "csd": "Centre Wellington, Township (TP)",
  "pop": 31093.0,
  "density": 75.9,
  "land_km2": 409.4126,
  "lat": 43.681148,
  "lon": -80.429581,
  "coord_src": "audited",
  "osm": "Centre Wellington, Wellington County, Southwestern Ontario, Ontario, Canada",
  "alias": "Elora"
 },
 {
  "name": "Oakville",
  "prov": "ON",
  "code": "3524001",
  "csd": "Oakville, Town (T)",
  "pop": 213759.0,
  "density": 1538.5,
  "land_km2": 138.9434,
  "lat": 43.447436,
  "lon": -79.666672,
  "coord_src": "nominatim",
  "osm": "Oakville, Halton Region, Golden Horseshoe, Ontario, Canada"
 },
 {
  "name": "Burlington",
  "prov": "ON",
  "code": "3524002",
  "csd": "Burlington, City (CY)",
  "pop": 186948.0,
  "density": 1004.4,
  "land_km2": 186.1219,
  "lat": 43.3248924,
  "lon": -79.7966835,
  "coord_src": "nominatim",
  "osm": "Burlington, Halton Region, Golden Horseshoe, Ontario, Canada"
 },
 {
  "name": "Milton",
  "prov": "ON",
  "code": "3524009",
  "csd": "Milton, Town (T)",
  "pop": 132979.0,
  "density": 365.5,
  "land_km2": 363.8308,
  "lat": 43.513671,
  "lon": -79.882817,
  "coord_src": "nominatim",
  "osm": "Milton, Halton Region, Golden Horseshoe, Ontario, Canada"
 },
 {
  "name": "Halton Hills",
  "prov": "ON",
  "code": "3524015",
  "csd": "Halton Hills, Town (T)",
  "pop": 62951.0,
  "density": 227.4,
  "land_km2": 276.8103,
  "lat": 43.6512888,
  "lon": -79.9142216,
  "coord_src": "nominatim",
  "osm": "Halton Hills, Halton Region, Golden Horseshoe, Ontario, Canada"
 },
 {
  "name": "Hamilton",
  "prov": "ON",
  "code": "3525005",
  "csd": "Hamilton, City (C)",
  "pop": 569353.0,
  "density": 509.1,
  "land_km2": 1118.3101,
  "lat": 43.2560802,
  "lon": -79.8728583,
  "coord_src": "audited"
 },
 {
  "name": "Fort Erie",
  "prov": "ON",
  "code": "3526003",
  "csd": "Fort Erie, Town (T)",
  "pop": 32901.0,
  "density": 197.9,
  "land_km2": 166.2419,
  "lat": 42.91308,
  "lon": -78.918611,
  "coord_src": "nominatim",
  "osm": "Fort Erie, Niagara Region, Golden Horseshoe, Ontario, Canada"
 },
 {
  "name": "Port Colborne",
  "prov": "ON",
  "code": "3526011",
  "csd": "Port Colborne, City (CY)",
  "pop": 20033.0,
  "density": 164.2,
  "land_km2": 121.9886,
  "lat": 42.8862392,
  "lon": -79.2513905,
  "coord_src": "nominatim",
  "osm": "Port Colborne, Niagara Region, Golden Horseshoe, Ontario, Canada"
 },
 {
  "name": "Pelham",
  "prov": "ON",
  "code": "3526028",
  "csd": "Pelham, Town (T)",
  "pop": 18192.0,
  "density": 144.0,
  "land_km2": 126.345,
  "lat": 43.0445702,
  "lon": -79.2838481,
  "coord_src": "nominatim",
  "osm": "Pelham, Niagara Region, Golden Horseshoe, Ontario, Canada"
 },
 {
  "name": "Welland",
  "prov": "ON",
  "code": "3526032",
  "csd": "Welland, City (CY)",
  "pop": 55750.0,
  "density": 686.9,
  "land_km2": 81.1574,
  "lat": 42.9922181,
  "lon": -79.2484192,
  "coord_src": "nominatim",
  "osm": "Welland, Niagara Region, Golden Horseshoe, Ontario, Canada"
 },
 {
  "name": "Thorold",
  "prov": "ON",
  "code": "3526037",
  "csd": "Thorold, City (CY)",
  "pop": 23816.0,
  "density": 285.9,
  "land_km2": 83.2949,
  "lat": 43.1249127,
  "lon": -79.2005935,
  "coord_src": "nominatim",
  "osm": "Thorold, Niagara Region, Golden Horseshoe, Ontario, Canada"
 },
 {
  "name": "Niagara Falls",
  "prov": "ON",
  "code": "3526043",
  "csd": "Niagara Falls, City (CY)",
  "pop": 94415.0,
  "density": 449.1,
  "land_km2": 210.2536,
  "lat": 43.1065603,
  "lon": -79.0639039,
  "coord_src": "nominatim",
  "osm": "Niagara Falls, Niagara Region, Golden Horseshoe, Ontario, Canada"
 },
 {
  "name": "Niagara-on-the-Lake",
  "prov": "ON",
  "code": "3526047",
  "csd": "Niagara-on-the-Lake, Town (T)",
  "pop": 19088.0,
  "density": 145.3,
  "land_km2": 131.3489,
  "lat": 43.2556116,
  "lon": -79.0723264,
  "coord_src": "audited"
 },
 {
  "name": "St. Catharines",
  "prov": "ON",
  "code": "3526053",
  "csd": "St. Catharines, City (CY)",
  "pop": 136803.0,
  "density": 1422.1,
  "land_km2": 96.1956,
  "lat": 43.1579812,
  "lon": -79.2441003,
  "coord_src": "audited"
 },
 {
  "name": "Lincoln",
  "prov": "ON",
  "code": "3526057",
  "csd": "Lincoln, Town (T)",
  "pop": 25719.0,
  "density": 158.0,
  "land_km2": 162.7382,
  "lat": 43.1735498,
  "lon": -79.4159805,
  "coord_src": "nominatim",
  "osm": "Lincoln, Niagara Region, Golden Horseshoe, Ontario, Canada"
 },
 {
  "name": "Grimsby",
  "prov": "ON",
  "code": "3526065",
  "csd": "Grimsby, Town (T)",
  "pop": 28883.0,
  "density": 420.4,
  "land_km2": 68.71,
  "lat": 43.1931661,
  "lon": -79.560677,
  "coord_src": "nominatim",
  "osm": "Grimsby, Niagara Region, Golden Horseshoe, Ontario, Canada"
 },
 {
  "name": "Brantford",
  "prov": "ON",
  "code": "3529006",
  "csd": "Brantford, City (CY)",
  "pop": 104688.0,
  "density": 1061.2,
  "land_km2": 98.6476,
  "lat": 43.1408157,
  "lon": -80.2631733,
  "coord_src": "nominatim",
  "osm": "Brantford, Southwestern Ontario, Ontario, Canada"
 },
 {
  "name": "Cambridge",
  "prov": "ON",
  "code": "3530010",
  "csd": "Cambridge, City (CY)",
  "pop": 138479.0,
  "density": 1225.5,
  "land_km2": 112.994,
  "lat": 43.3600536,
  "lon": -80.3123023,
  "coord_src": "nominatim",
  "osm": "Cambridge, Region of Waterloo, Southwestern Ontario, Ontario, Canada"
 },
 {
  "name": "Kitchener",
  "prov": "ON",
  "code": "3530013",
  "csd": "Kitchener, City (CY)",
  "pop": 256885.0,
  "density": 1877.6,
  "land_km2": 136.8149,
  "lat": 43.451291,
  "lon": -80.4927815,
  "coord_src": "audited",
  "osm": "Kitchener, Region of Waterloo, Southwestern Ontario, Ontario, Canada",
  "alias": "Kitchener-Waterloo"
 },
 {
  "name": "Waterloo",
  "prov": "ON",
  "code": "3530016",
  "csd": "Waterloo, City (CY)",
  "pop": 121436.0,
  "density": 1895.8,
  "land_km2": 64.056,
  "lat": 43.451291,
  "lon": -80.4927815,
  "coord_src": "audited",
  "osm": "Waterloo, Region of Waterloo, Southwestern Ontario, Ontario, Canada",
  "alias": "Kitchener-Waterloo"
 },
 {
  "name": "Stratford",
  "prov": "ON",
  "code": "3531011",
  "csd": "Stratford, City (CY)",
  "pop": 33232.0,
  "density": 1107.0,
  "land_km2": 30.021,
  "lat": 43.3700899,
  "lon": -80.9818016,
  "coord_src": "audited"
 },
 {
  "name": "St. Marys",
  "prov": "ON",
  "code": "3531016",
  "csd": "St. Marys, Town (T)",
  "pop": 7386.0,
  "density": 593.8,
  "land_km2": 12.4384,
  "lat": 43.25526,
  "lon": -81.1417,
  "coord_src": "csd centroid"
 },
 {
  "name": "Tillsonburg",
  "prov": "ON",
  "code": "3532004",
  "csd": "Tillsonburg, Town (T)",
  "pop": 18615.0,
  "density": 838.6,
  "land_km2": 22.1989,
  "lat": 42.85902,
  "lon": -80.73271,
  "coord_src": "csd centroid"
 },
 {
  "name": "Ingersoll",
  "prov": "ON",
  "code": "3532018",
  "csd": "Ingersoll, Town (T)",
  "pop": 13693.0,
  "density": 1075.3,
  "land_km2": 12.7336,
  "lat": 43.03281,
  "lon": -80.88213,
  "coord_src": "csd centroid"
 },
 {
  "name": "Woodstock",
  "prov": "ON",
  "code": "3532042",
  "csd": "Woodstock, City (CY)",
  "pop": 46705.0,
  "density": 827.2,
  "land_km2": 56.4608,
  "lat": 43.13808,
  "lon": -80.7248,
  "coord_src": "csd centroid"
 },
 {
  "name": "Aylmer",
  "prov": "ON",
  "code": "3534011",
  "csd": "Aylmer, Town (T)",
  "pop": 7699.0,
  "density": 1208.6,
  "land_km2": 6.37,
  "lat": 42.7749,
  "lon": -80.98528,
  "coord_src": "csd centroid"
 },
 {
  "name": "St. Thomas",
  "prov": "ON",
  "code": "3534021",
  "csd": "St. Thomas, City (CY)",
  "pop": 42840.0,
  "density": 1203.2,
  "land_km2": 35.6062,
  "lat": 42.77671,
  "lon": -81.18153,
  "coord_src": "csd centroid"
 },
 {
  "name": "Leamington",
  "prov": "ON",
  "code": "3537003",
  "csd": "Leamington, Municipality (MU)",
  "pop": 29680.0,
  "density": 113.6,
  "land_km2": 261.2438,
  "lat": 42.0531385,
  "lon": -82.5997722,
  "coord_src": "nominatim",
  "osm": "Leamington, Essex County, Southwestern Ontario, Ontario, Canada"
 },
 {
  "name": "Amherstburg",
  "prov": "ON",
  "code": "3537028",
  "csd": "Amherstburg, Town (T)",
  "pop": 23524.0,
  "density": 128.0,
  "land_km2": 183.7604,
  "lat": 42.1013313,
  "lon": -83.1086544,
  "coord_src": "nominatim",
  "osm": "Amherstburg, Essex County, Southwestern Ontario, Ontario, Canada"
 },
 {
  "name": "LaSalle",
  "prov": "ON",
  "code": "3537034",
  "csd": "LaSalle, Town (T)",
  "pop": 32721.0,
  "density": 503.7,
  "land_km2": 64.9553,
  "lat": 42.2151672,
  "lon": -83.0642923,
  "coord_src": "nominatim",
  "osm": "Lasalle, Essex County, Southwestern Ontario, Ontario, Canada"
 },
 {
  "name": "Windsor",
  "prov": "ON",
  "code": "3537039",
  "csd": "Windsor, City (CY)",
  "pop": 229660.0,
  "density": 1572.8,
  "land_km2": 146.0197,
  "lat": 42.2858536,
  "lon": -82.9780695,
  "coord_src": "audited"
 },
 {
  "name": "Tecumseh",
  "prov": "ON",
  "code": "3537048",
  "csd": "Tecumseh, Town (T)",
  "pop": 23300.0,
  "density": 246.3,
  "land_km2": 94.5916,
  "lat": 42.3117951,
  "lon": -82.8861974,
  "coord_src": "nominatim",
  "osm": "Tecumseh, Essex County, Southwestern Ontario, Ontario, Canada"
 },
 {
  "name": "Petrolia",
  "prov": "ON",
  "code": "3538019",
  "csd": "Petrolia, Town (T)",
  "pop": 6013.0,
  "density": 482.6,
  "land_km2": 12.4587,
  "lat": 42.88182,
  "lon": -82.14017,
  "coord_src": "csd centroid"
 },
 {
  "name": "Sarnia",
  "prov": "ON",
  "code": "3538030",
  "csd": "Sarnia, City (CY)",
  "pop": 72047.0,
  "density": 439.6,
  "land_km2": 163.8953,
  "lat": 42.9743821,
  "lon": -82.403533,
  "coord_src": "audited"
 },
 {
  "name": "Point Edward",
  "prov": "ON",
  "code": "3538031",
  "csd": "Point Edward, Village (VL)",
  "pop": 1930.0,
  "density": 585.0,
  "land_km2": 3.2994,
  "lat": 42.99392,
  "lon": -82.40821,
  "coord_src": "csd centroid"
 },
 {
  "name": "London",
  "prov": "ON",
  "code": "3539036",
  "csd": "London, City (CY)",
  "pop": 422324.0,
  "density": 1004.3,
  "land_km2": 420.4995,
  "lat": 42.9836747,
  "lon": -81.2496068,
  "coord_src": "audited"
 },
 {
  "name": "Bluewater",
  "prov": "ON",
  "code": "3540010",
  "csd": "Bluewater, Municipality (MU)",
  "pop": 7540.0,
  "density": 18.1,
  "land_km2": 416.704,
  "lat": 43.5609982,
  "lon": -81.6959031,
  "coord_src": "audited",
  "osm": "Bluewater, Huron County, Southwestern Ontario, Ontario, Canada",
  "alias": "Bayfield"
 },
 {
  "name": "Goderich",
  "prov": "ON",
  "code": "3540028",
  "csd": "Goderich, Town (T)",
  "pop": 7881.0,
  "density": 923.1,
  "land_km2": 8.5371,
  "lat": 43.7430924,
  "lon": -81.7110949,
  "coord_src": "audited"
 },
 {
  "name": "Northern Bruce Peninsula",
  "prov": "ON",
  "code": "3541069",
  "csd": "Northern Bruce Peninsula, Municipality (MU)",
  "pop": 4404.0,
  "density": 5.7,
  "land_km2": 775.696,
  "lat": 45.234697,
  "lon": -81.6430491,
  "coord_src": "audited",
  "osm": "Municipality of Northern Bruce Peninsula, Bruce County, Southwestern Ontario, Ontario, Can",
  "alias": "Tobermory"
 },
 {
  "name": "Hanover",
  "prov": "ON",
  "code": "3542029",
  "csd": "Hanover, Town (T)",
  "pop": 7967.0,
  "density": 814.6,
  "land_km2": 9.7802,
  "lat": 44.15422,
  "lon": -81.02023,
  "coord_src": "csd centroid"
 },
 {
  "name": "Meaford",
  "prov": "ON",
  "code": "3542047",
  "csd": "Meaford, Municipality (MU)",
  "pop": 11485.0,
  "density": 19.5,
  "land_km2": 587.5653,
  "lat": 44.6069298,
  "lon": -80.5916531,
  "coord_src": "audited"
 },
 {
  "name": "Owen Sound",
  "prov": "ON",
  "code": "3542059",
  "csd": "Owen Sound, City (CY)",
  "pop": 21612.0,
  "density": 892.6,
  "land_km2": 24.2137,
  "lat": 44.5678105,
  "lon": -80.9430094,
  "coord_src": "audited"
 },
 {
  "name": "New Tecumseth",
  "prov": "ON",
  "code": "3543007",
  "csd": "New Tecumseth, Town (T)",
  "pop": 43948.0,
  "density": 160.5,
  "land_km2": 273.8681,
  "lat": 44.1542367,
  "lon": -79.8689888,
  "coord_src": "nominatim",
  "osm": "New Tecumseth, Simcoe County, Central Ontario, Ontario, Canada"
 },
 {
  "name": "Bradford West Gwillimbury",
  "prov": "ON",
  "code": "3543014",
  "csd": "Bradford West Gwillimbury, Town (T)",
  "pop": 42880.0,
  "density": 213.7,
  "land_km2": 200.6757,
  "lat": 44.1142354,
  "lon": -79.5647731,
  "coord_src": "nominatim",
  "osm": "Bradford West Gwillimbury, Simcoe County, Central Ontario, Ontario, Canada"
 },
 {
  "name": "Innisfil",
  "prov": "ON",
  "code": "3543017",
  "csd": "Innisfil, Town (T)",
  "pop": 43326.0,
  "density": 165.1,
  "land_km2": 262.3924,
  "lat": 44.3150892,
  "lon": -79.5461073,
  "coord_src": "nominatim",
  "osm": "Innisfil, Simcoe County, Central Ontario, Ontario, Canada"
 },
 {
  "name": "Collingwood",
  "prov": "ON",
  "code": "3543031",
  "csd": "Collingwood, Town (T)",
  "pop": 24811.0,
  "density": 748.3,
  "land_km2": 33.1545,
  "lat": 44.5027226,
  "lon": -80.2172379,
  "coord_src": "audited"
 },
 {
  "name": "Barrie",
  "prov": "ON",
  "code": "3543042",
  "csd": "Barrie, City (CY)",
  "pop": 147829.0,
  "density": 1493.1,
  "land_km2": 99.0088,
  "lat": 44.3893208,
  "lon": -79.6901302,
  "coord_src": "audited"
 },
 {
  "name": "Orillia",
  "prov": "ON",
  "code": "3543052",
  "csd": "Orillia, City (CY)",
  "pop": 33411.0,
  "density": 1171.1,
  "land_km2": 28.5294,
  "lat": 44.6066135,
  "lon": -79.4169256,
  "coord_src": "audited"
 },
 {
  "name": "Wasaga Beach",
  "prov": "ON",
  "code": "3543064",
  "csd": "Wasaga Beach, Town (T)",
  "pop": 24862.0,
  "density": 433.0,
  "land_km2": 57.4219,
  "lat": 44.49693,
  "lon": -80.02451,
  "coord_src": "csd centroid"
 },
 {
  "name": "Penetanguishene",
  "prov": "ON",
  "code": "3543072",
  "csd": "Penetanguishene, Town (T)",
  "pop": 10077.0,
  "density": 396.4,
  "land_km2": 25.4227,
  "lat": 44.78557,
  "lon": -79.91686,
  "coord_src": "csd centroid"
 },
 {
  "name": "Midland",
  "prov": "ON",
  "code": "3543074",
  "csd": "Midland, Town (T)",
  "pop": 17817.0,
  "density": 504.3,
  "land_km2": 35.329,
  "lat": 44.74163,
  "lon": -79.89645,
  "coord_src": "csd centroid"
 },
 {
  "name": "Bracebridge",
  "prov": "ON",
  "code": "3544018",
  "csd": "Bracebridge, Town (T)",
  "pop": 17305.0,
  "density": 28.1,
  "land_km2": 615.1973,
  "lat": 45.041508,
  "lon": -79.310989,
  "coord_src": "audited"
 },
 {
  "name": "Huntsville",
  "prov": "ON",
  "code": "3544042",
  "csd": "Huntsville, Town (T)",
  "pop": 21147.0,
  "density": 30.0,
  "land_km2": 705.1844,
  "lat": 45.3263919,
  "lon": -79.218434,
  "coord_src": "audited"
 },
 {
  "name": "Arnprior",
  "prov": "ON",
  "code": "3547002",
  "csd": "Arnprior, Town (T)",
  "pop": 9629.0,
  "density": 738.5,
  "land_km2": 13.0382,
  "lat": 45.42535,
  "lon": -76.3565,
  "coord_src": "csd centroid"
 },
 {
  "name": "Renfrew",
  "prov": "ON",
  "code": "3547048",
  "csd": "Renfrew, Town (T)",
  "pop": 8190.0,
  "density": 639.3,
  "land_km2": 12.8111,
  "lat": 45.47397,
  "lon": -76.68031,
  "coord_src": "csd centroid"
 },
 {
  "name": "Pembroke",
  "prov": "ON",
  "code": "3547064",
  "csd": "Pembroke, City (CY)",
  "pop": 14364.0,
  "density": 1002.8,
  "land_km2": 14.3232,
  "lat": 45.81678,
  "lon": -77.1163,
  "coord_src": "csd centroid"
 },
 {
  "name": "Petawawa",
  "prov": "ON",
  "code": "3547076",
  "csd": "Petawawa, Town (T)",
  "pop": 18160.0,
  "density": 110.3,
  "land_km2": 164.6987,
  "lat": 45.8984286,
  "lon": -77.2826645,
  "coord_src": "nominatim",
  "osm": "Petawawa, Renfrew County, Eastern Ontario, Ontario, Canada"
 },
 {
  "name": "Mattawa",
  "prov": "ON",
  "code": "3548021",
  "csd": "Mattawa, Town (T)",
  "pop": 1881.0,
  "density": 513.1,
  "land_km2": 3.6659,
  "lat": 46.31224,
  "lon": -78.70601,
  "coord_src": "csd centroid"
 },
 {
  "name": "North Bay",
  "prov": "ON",
  "code": "3548044",
  "csd": "North Bay, City (CY)",
  "pop": 52662.0,
  "density": 166.9,
  "land_km2": 315.529,
  "lat": 46.3092115,
  "lon": -79.4607617,
  "coord_src": "audited"
 },
 {
  "name": "Parry Sound",
  "prov": "ON",
  "code": "3549032",
  "csd": "Parry Sound, Town (T)",
  "pop": 6879.0,
  "density": 524.9,
  "land_km2": 13.1049,
  "lat": 45.3532,
  "lon": -80.03033,
  "coord_src": "csd centroid"
 },
 {
  "name": "South River",
  "prov": "ON",
  "code": "3549056",
  "csd": "South River, Village (VL)",
  "pop": 1101.0,
  "density": 268.0,
  "land_km2": 4.1076,
  "lat": 45.84265,
  "lon": -79.37525,
  "coord_src": "csd centroid"
 },
 {
  "name": "Chapleau",
  "prov": "ON",
  "code": "3552092",
  "csd": "Chapleau, Township (TP)",
  "pop": 1942.0,
  "density": 147.1,
  "land_km2": 13.1977,
  "lat": 47.8342,
  "lon": -83.40914,
  "coord_src": "csd centroid"
 },
 {
  "name": "Greater Sudbury / Grand Sudbury",
  "prov": "ON",
  "code": "3553005",
  "csd": "Greater Sudbury / Grand Sudbury, City (CV)",
  "pop": 166004.0,
  "density": 52.1,
  "land_km2": 3186.2598,
  "lat": 46.49272,
  "lon": -80.991211,
  "coord_src": "audited",
  "alias": "Greater Sudbury"
 },
 {
  "name": "Englehart",
  "prov": "ON",
  "code": "3554052",
  "csd": "Englehart, Town (T)",
  "pop": 1442.0,
  "density": 494.2,
  "land_km2": 2.9177,
  "lat": 47.82712,
  "lon": -79.87576,
  "coord_src": "csd centroid"
 },
 {
  "name": "Timmins",
  "prov": "ON",
  "code": "3556027",
  "csd": "Timmins, City (CY)",
  "pop": 41145.0,
  "density": 13.9,
  "land_km2": 2955.3264,
  "lat": 48.477473,
  "lon": -81.330414,
  "coord_src": "audited"
 },
 {
  "name": "Thessalon",
  "prov": "ON",
  "code": "3557028",
  "csd": "Thessalon, Town (T)",
  "pop": 1260.0,
  "density": 287.5,
  "land_km2": 4.3829,
  "lat": 46.26036,
  "lon": -83.55541,
  "coord_src": "csd centroid"
 },
 {
  "name": "Sault Ste. Marie",
  "prov": "ON",
  "code": "3557061",
  "csd": "Sault Ste. Marie, City (CY)",
  "pop": 72051.0,
  "density": 324.6,
  "land_km2": 221.9912,
  "lat": 46.5126554,
  "lon": -84.3330301,
  "coord_src": "audited"
 },
 {
  "name": "Thunder Bay",
  "prov": "ON",
  "code": "3558004",
  "csd": "Thunder Bay, City (CY)",
  "pop": 108843.0,
  "density": 332.1,
  "land_km2": 327.7716,
  "lat": 48.406414,
  "lon": -89.259796,
  "coord_src": "audited"
 },
 {
  "name": "Fort Frances",
  "prov": "ON",
  "code": "3559012",
  "csd": "Fort Frances, Town (T)",
  "pop": 7466.0,
  "density": 292.2,
  "land_km2": 25.5508,
  "lat": 48.62261,
  "lon": -93.41389,
  "coord_src": "csd centroid"
 },
 {
  "name": "Kenora",
  "prov": "ON",
  "code": "3560010",
  "csd": "Kenora, City (CY)",
  "pop": 14967.0,
  "density": 70.7,
  "land_km2": 211.6539,
  "lat": 49.766215,
  "lon": -94.4893528,
  "coord_src": "audited"
 },
 {
  "name": "Dryden",
  "prov": "ON",
  "code": "3560027",
  "csd": "Dryden, City (CY)",
  "pop": 7388.0,
  "density": 112.7,
  "land_km2": 65.5818,
  "lat": 49.785698,
  "lon": -92.835846,
  "coord_src": "nominatim",
  "osm": "Dryden, Kenora District, Northwestern Ontario, Ontario, Canada"
 },
 {
  "name": "Lac du Bonnet",
  "prov": "MB",
  "code": "4601060",
  "csd": "Lac du Bonnet, Town (T)",
  "pop": 1064.0,
  "density": 470.7,
  "land_km2": 2.2604,
  "lat": 50.25224,
  "lon": -96.0621,
  "coord_src": "csd centroid"
 },
 {
  "name": "Powerview-Pine Falls",
  "prov": "MB",
  "code": "4601075",
  "csd": "Powerview-Pine Falls, Town (T)",
  "pop": 1239.0,
  "density": 257.0,
  "land_km2": 4.8215,
  "lat": 50.56499,
  "lon": -96.2117,
  "coord_src": "csd centroid"
 },
 {
  "name": "St-Pierre-Jolys",
  "prov": "MB",
  "code": "4602037",
  "csd": "St-Pierre-Jolys, Village (VL)",
  "pop": 1305.0,
  "density": 500.5,
  "land_km2": 2.6076,
  "lat": 49.4401,
  "lon": -96.98662,
  "coord_src": "csd centroid"
 },
 {
  "name": "Steinbach",
  "prov": "MB",
  "code": "4602044",
  "csd": "Steinbach, City (CY)",
  "pop": 17806.0,
  "density": 474.1,
  "land_km2": 37.5552,
  "lat": 49.5254414,
  "lon": -96.6854275,
  "coord_src": "audited"
 },
 {
  "name": "Niverville",
  "prov": "MB",
  "code": "4602046",
  "csd": "Niverville, Town (T)",
  "pop": 5947.0,
  "density": 683.7,
  "land_km2": 8.6987,
  "lat": 49.60374,
  "lon": -97.05139,
  "coord_src": "csd centroid"
 },
 {
  "name": "Ste. Anne",
  "prov": "MB",
  "code": "4602061",
  "csd": "Ste. Anne, Town (T)",
  "pop": 2891.0,
  "density": 699.0,
  "land_km2": 4.1361,
  "lat": 49.66836,
  "lon": -96.64836,
  "coord_src": "csd centroid"
 },
 {
  "name": "Altona",
  "prov": "MB",
  "code": "4603040",
  "csd": "Altona, Town (T)",
  "pop": 4267.0,
  "density": 456.3,
  "land_km2": 9.352,
  "lat": 49.10746,
  "lon": -97.56581,
  "coord_src": "csd centroid"
 },
 {
  "name": "Winkler",
  "prov": "MB",
  "code": "4603050",
  "csd": "Winkler, City (CY)",
  "pop": 13745.0,
  "density": 663.1,
  "land_km2": 20.7293,
  "lat": 49.18276,
  "lon": -97.93897,
  "coord_src": "csd centroid"
 },
 {
  "name": "Morden",
  "prov": "MB",
  "code": "4603053",
  "csd": "Morden, City (CY)",
  "pop": 9929.0,
  "density": 609.6,
  "land_km2": 16.287,
  "lat": 49.19124,
  "lon": -98.1091,
  "coord_src": "csd centroid"
 },
 {
  "name": "Morris",
  "prov": "MB",
  "code": "4603067",
  "csd": "Morris, Town (T)",
  "pop": 1975.0,
  "density": 334.1,
  "land_km2": 5.9119,
  "lat": 49.3505,
  "lon": -97.3712,
  "coord_src": "csd centroid"
 },
 {
  "name": "Carman",
  "prov": "MB",
  "code": "4603074",
  "csd": "Carman, Town (T)",
  "pop": 3114.0,
  "density": 721.5,
  "land_km2": 4.316,
  "lat": 49.50744,
  "lon": -98.00527,
  "coord_src": "csd centroid"
 },
 {
  "name": "Melita",
  "prov": "MB",
  "code": "4605052",
  "csd": "Melita, Town (T)",
  "pop": 1041.0,
  "density": 326.4,
  "land_km2": 3.1898,
  "lat": 49.27383,
  "lon": -100.98776,
  "coord_src": "csd centroid"
 },
 {
  "name": "Virden",
  "prov": "MB",
  "code": "4606034",
  "csd": "Virden, Town (T)",
  "pop": 3118.0,
  "density": 347.8,
  "land_km2": 8.9638,
  "lat": 49.85819,
  "lon": -100.93279,
  "coord_src": "csd centroid"
 },
 {
  "name": "Brandon",
  "prov": "MB",
  "code": "4607062",
  "csd": "Brandon, City (CY)",
  "pop": 51313.0,
  "density": 649.2,
  "land_km2": 79.0393,
  "lat": 49.8511143,
  "lon": -99.9608924,
  "coord_src": "audited"
 },
 {
  "name": "Carberry",
  "prov": "MB",
  "code": "4607068",
  "csd": "Carberry, Town (T)",
  "pop": 1818.0,
  "density": 379.1,
  "land_km2": 4.7959,
  "lat": 49.86955,
  "lon": -99.34969,
  "coord_src": "csd centroid"
 },
 {
  "name": "Portage la Prairie",
  "prov": "MB",
  "code": "4609029",
  "csd": "Portage la Prairie, City (CY)",
  "pop": 13270.0,
  "density": 536.8,
  "land_km2": 24.7199,
  "lat": 49.97029,
  "lon": -98.28857,
  "coord_src": "csd centroid"
 },
 {
  "name": "Winnipeg",
  "prov": "MB",
  "code": "4611040",
  "csd": "Winnipeg, City (CY)",
  "pop": 749607.0,
  "density": 1623.3,
  "land_km2": 461.7807,
  "lat": 49.8955367,
  "lon": -97.1384584,
  "coord_src": "audited"
 },